fecha_robo;hora_robo;id_tipo_alerta;DiaDeLaSemana;codigo_via;tipo_via;nombre_via;nro_cuadra;id_criticidad;desc_criticidad;estado_criticidad;id_urbanizacion;urbanizacion;latitud;longitud;tipo_de_delito;data1;data2
31/10/2022;1;1;1;1;Avenida;ABANCAY;9;1;Leve;Activo;1;Cercado lima;-12.053478;-77.0295;1;-12.05;-77.02
26/09/2022;5;1;2;7;Otros;CRUCE MAYNAS CON JUNIN;0;1;Leve;Activo;1;Cercado lima;-12.051379;-77.0166;1;-12.05;-77.01
8/08/2022;6;1;3;2;Jiron;CUZCO;6;1;Leve;Activo;1;Cercado lima;-12.052248;-77.0278;1;-12.05;-77.02
17/08/2022;2;2;2;2;Jiron;ANDAHUAYLAS;9;1;Leve;Activo;1;Cercado lima;-12.053125;-77.026582;1;-12.05;-77.02
25/09/2022;5;3;2;1;Avenida;GUILLERMO DANSEY;18;1;Leve;Activo;1;Cercado lima;-12.045245;-77.045727;1;-12.04;-77.04
21/08/2022;6;3;2;7;Otros;CRUCE ARGENTINA Y RICARDO HERRERA;0;1;Leve;Activo;1;Cercado lima;-12.044653;-77.054807;1;-12.04;-77.05
26/08/2022;7;3;2;7;Otros;CRUCE ARISTIDES DEL CARPIO CON ELVIRA GARCIA;0;1;Leve;Activo;1;Cercado lima;-12.052973;-77.071292;1;-12.05;-77.07
18/08/2022;3;3;2;2;Jiron;AMAZONAS;2;1;Leve;Activo;1;Cercado lima;-12.044596;-77.021681;1;-12.04;-77.02
17/08/2022;11;3;3;1;Avenida;VENEZUELA;26;1;Leve;Activo;1;Cercado lima;-12.057859;-77.068953;1;-12.05;-77.06
14/08/2022;12;3;3;2;Jiron;MONTEVIDEO;5;1;Leve;Activo;1;Cercado lima;-12.057497;-77.031654;1;-12.05;-77.03
19/07/2022;13;3;4;2;Jiron;GUALBERTO GUEVARA;3;1;Leve;Activo;1;Cercado lima;-12.052297;-77.065325;1;-12.05;-77.06
8/09/2022;14;3;4;2;Jiron;HUANUCO;8;1;Leve;Activo;1;Cercado lima;-12.054379;-77.018657;1;-12.05;-77.01
5/09/2022;12;4;4;7;Otros;CRUCE COLONIAL CON NACIONES UNIDAS;0;1;Leve;Activo;1;Cercado lima;-12.04823;-77.059373;1;-12.04;-77.05
2/10/2022;5;4;4;7;Otros;CRUCE COLONIAL CON NACIONES UNIDAS;0;1;Leve;Activo;1;Cercado lima;-12.04928;-77.059727;1;-12.04;-77.05
14/09/2022;6;4;6;6;Prolongacion;ARICA;18;1;Leve;Activo;1;Cercado lima;-12.055355;-77.058257;1;-12.05;-77.05
11/10/2022;7;4;6;7;Otros;CRUCE VENEZUELA CON AGUARICO;0;1;Leve;Activo;1;Cercado lima;-12.055491;-77.054019;1;-12.05;-77.05
17/07/2022;8;4;6;1;Avenida;ABANCAY;10;1;Leve;Activo;1;Cercado lima;-12.055732;-77.030234;1;-12.05;-77.03
23/08/2022;2;4;7;2;Jiron;AMAZONAS;2;1;Leve;Activo;1;Cercado lima;-12.044596;-77.021681;1;-12.04;-77.02
11/07/2022;3;5;7;7;Otros;CRUCE DOS DE MAYO CON VAQUERO;0;1;Leve;Activo;1;Cercado lima;-12.047126;-77.043523;1;-12.04;-77.04
25/07/2022;11;5;7;7;Otros;URB CHACRA RIO SUR;0;1;Leve;Activo;1;Cercado lima;-12.058132;-77.060218;1;-12.05;-77.06
29/07/2022;12;5;7;2;Jiron;TNTE CARLOS MORE;14;1;Leve;Activo;1;Cercado lima;-12.05109;-77.076528;1;-12.05;-77.07
27/07/2022;15;5;7;2;Jiron;PUNO;16;1;Leve;Activo;1;Cercado lima;-12.054958;-77.024536;1;-12.05;-77.02
12/07/2022;16;5;1;2;Jiron;HUANUCO;8;1;Leve;Activo;1;Cercado lima;-12.054379;-77.018657;1;-12.05;-77.01
22/08/2022;12;5;1;1;Avenida;ABANCAY;10;1;Leve;Activo;1;Cercado lima;-12.055732;-77.030234;1;-12.05;-77.03
6/07/2022;3;6;1;1;Avenida;GRAU;1;1;Leve;Activo;1;Cercado lima;-12.059797;-77.034789;1;-12.05;-77.03
13/07/2022;5;6;2;1;Avenida;ARGENTINA;0;1;Leve;Activo;1;Cercado lima;-12.043363;-77.043661;1;-12.04;-77.04
5/09/2022;6;6;2;1;Avenida;ABANCAY;1;1;Leve;Activo;1;Cercado lima;-12.045259;-77.025315;1;-12.04;-77.02
5/09/2022;22;6;3;1;Avenida;ARGENTINA;0;1;Leve;Activo;1;Cercado lima;-12.043363;-77.043661;1;-12.04;-77.04
8/09/2022;23;6;4;2;Jiron;HUANUCO;8;1;Leve;Activo;1;Cercado lima;-12.054379;-77.018657;1;-12.05;-77.01
20/09/2022;24;6;5;1;Avenida;ARGENTINA;4;1;Leve;Activo;1;Cercado lima;-12.044177;-77.047607;1;-12.04;-77.04
3/10/2022;1;6;6;1;Avenida;ARGENTINA;8;1;Leve;Activo;1;Cercado lima;-12.044502;-77.052939;1;-12.04;-77.05
19/11/2022;2;6;7;1;Avenida;ABANCAY;7;1;Leve;Activo;1;Cercado lima;-12.054086;-77.029977;1;-12.05;-77.02
22/09/2022;4;6;1;1;Avenida;ARGENTINA;0;1;Leve;Activo;1;Cercado lima;-12.043363;-77.043661;1;-12.04;-77.04
17/11/2022;6;7;2;1;Avenida;GRAU;7;1;Leve;Activo;1;Cercado lima;-12.058254;-77.025219;1;-12.05;-77.02
19/11/2022;7;7;3;1;Avenida;ABANCAY;7;1;Leve;Activo;1;Cercado lima;-12.054086;-77.029977;1;-12.05;-77.02
2/01/2022;4;7;4;2;Jiron;INTERSECCIONES DEL JR PUNO Y JR HUANUCO;0;1;Leve;Activo;1;Cercado lima;-12.05593;-77.018002;1;-12.05;-77.01
3/01/2022;9;7;5;2;Jiron;JR. HUANUCO - BARRIOS ALTOS - CERCADO DE LIMA;5;1;Leve;Activo;1;Cercado lima;-12.047717;-77.019842;1;-12.04;-77.01
4/01/2022;9;7;6;2;Jiron;JR HUANUCO - MIROQUEZADA;0;1;Leve;Activo;1;Cercado lima;-12.053142;-77.018844;1;-12.05;-77.01
4/01/2022;9;7;7;1;Avenida;AV. GARCILASO DE LA VEGA;9;1;Leve;Activo;1;Cercado lima;-12.053709;-77.038259;1;-12.05;-77.03
5/01/2022;10;7;1;1;Avenida;AV. GRAU;6;1;Leve;Activo;1;Cercado lima;-12.058328;-77.025852;1;-12.05;-77.02
6/01/2022;11;7;2;1;Avenida;AV. ABANCAY INTERSECCION CON AV. GRAU;0;1;Leve;Activo;1;Cercado lima;-12.058661;-77.029852;1;-12.05;-77.02
6/01/2022;12;7;2;1;Avenida;AV. ALFONSO UGARTE;5;1;Leve;Activo;1;Cercado lima;-12.044046;-77.042761;1;-12.04;-77.04
5/01/2022;14;7;2;1;Avenida;GARCILASO DE LA VEGA;17;1;Leve;Activo;1;Cercado lima;-12.063571;-77.037744;1;-12.06;-77.03
5/01/2022;16;7;2;1;Avenida;AV. GARCILASO DE LA VEGA;13;1;Leve;Activo;1;Cercado lima;-12.056767;-77.0398989;1;-12.05;-77.03
7/01/2022;17;7;2;1;Avenida;AV. GRAU Y JR PARURO;0;1;Leve;Activo;1;Cercado lima;-12.058212;-77.025573;1;-12.05;-77.02
8/01/2022;18;1;2;1;Avenida;AV. PASEO DE LA REPUBLICA CON AV. GRAU;0;1;Leve;Activo;1;Cercado lima;-12.059589;-77.03517;1;-12.05;-77.03
7/01/2022;2;1;3;1;Avenida;INTERSECCIONES DE LA AV. ABANCAY Y JR MONTEVIDEO;0;1;Leve;Activo;1;Cercado lima;-12.057843;-77.030045;1;-12.05;-77.03
7/01/2022;3;1;3;1;Avenida;AV. ARGENTINA;12;1;Leve;Activo;1;Cercado lima;-12.044968;-77.058328;1;-12.04;-77.05
10/01/2022;4;1;4;2;Jiron;CARABAYA CON EL JIRON PUNO;0;1;Leve;Activo;1;Cercado lima;-12.050478;-77.033042;1;-12.05;-77.03
11/01/2022;5;1;4;1;Avenida;AV. ARGENTINA;3;1;Leve;Activo;1;Cercado lima;-12.044062;-77.046813;1;-12.04;-77.04
8/01/2022;1;1;4;1;Avenida;GRAU;15;1;Leve;Activo;1;Cercado lima;-12.056011;-77.014088;1;-12.05;-77.01
11/01/2022;23;1;6;1;Avenida;AV. GRAU CON EL JIRON SANDIA;0;1;Leve;Activo;1;Cercado lima;-12.059258;-77.033267;1;-12.05;-77.03
11/01/2022;24;1;7;1;Avenida;AV. ARGENTINA;3;1;Leve;Activo;1;Cercado lima;-12.044062;-77.046813;1;-12.04;-77.04
11/01/2022;1;1;6;1;Avenida;AV. ABANCAY CON EL JIRON PUNO;0;1;Leve;Activo;1;Cercado lima;-12.052848;-77.029337;1;-12.05;-77.02
12/01/2022;5;1;6;1;Avenida;AV. GARCILASO DE LA VEGA;3;1;Leve;Activo;1;Cercado lima;-12.050907;-77.03872;1;-12.05;-77.03
3/01/2022;6;1;1;1;Avenida;INTERSECCION DE LA AV. GARCILASO DE LA VEGA CON URUGUAY;0;1;Leve;Activo;1;Cercado lima;-12.054066;-77.038227;1;-12.05;-77.03
12/01/2022;2;1;2;1;Avenida;AV. ABANCAY Y AV. GRAU;0;1;Leve;Activo;1;Cercado lima;-12.058661;-77.029852;1;-12.05;-77.02
12/01/2022;5;1;3;1;Avenida;AV. ABANCAY COBN JR. MONTEVIDEO;0;1;Leve;Activo;1;Cercado lima;-12.057843;-77.030045;1;-12.05;-77.03
12/01/2022;6;1;2;1;Avenida;ALFONSO UGARTE;8;1;Leve;Activo;1;Cercado lima;-12.05651;-77.04166;1;-12.05;-77.04
13/01/2022;7;1;2;1;Avenida;ALFONSO UGARTE;8;1;Leve;Activo;1;Cercado lima;-12.05651;-77.04166;1;-12.05;-77.04
14/01/2022;3;1;2;1;Avenida;AV. GRAU CON PASEO DE LA REPUBLICA;0;1;Leve;Activo;1;Cercado lima;-12.059589;-77.03517;1;-12.05;-77.03
15/01/2022;11;1;2;1;Avenida;AV. ABANCAY CON JR. MONTEVIDEO;0;1;Leve;Activo;1;Cercado lima;-12.057843;-77.030045;1;-12.05;-77.03
15/01/2022;12;1;2;1;Avenida;AV. ABANCAY  CON JR-MONTEVIDEO CERCADO DE LIMA;0;1;Leve;Activo;1;Cercado lima;-12.057843;-77.030045;1;-12.05;-77.03
15/01/2022;13;1;3;1;Avenida;INTERSECCION DEL JR. HUANUCO Y AV. GRAU AL COSTADO DEL GRIFO LA VICTORIA;0;1;Leve;Activo;1;Cercado lima;-12.057244;-77.017539;1;-12.05;-77.01
16/01/2022;14;1;3;1;Avenida;PARADERO ABANCAY CORREDOR GRAU AV. ABANCAY Y AV. GRAU CERCADO DE LIMA.;0;1;Leve;Activo;1;Cercado lima;-12.058661;-77.029852;1;-12.05;-77.02
17/01/2022;12;1;4;2;Jiron;JR. JUNIN Y JR. HUANUCO;0;1;Leve;Activo;1;Cercado lima;-12.051075;-77.019316;1;-12.05;-77.01
18/01/2022;5;1;4;1;Avenida;INTERSECCIONES DE LA AV. ABANCAY Y JR. CUZCO;0;1;Leve;Activo;1;Cercado lima;-12.051778;-77.028693;1;-12.05;-77.02
16/01/2022;6;1;4;1;Avenida;AV ARGENTINA;14;1;Leve;Activo;1;Cercado lima;-12.045098;-77.06036;1;-12.04;-77.06
18/01/2022;7;1;4;1;Avenida;AV ABANCAY CON JR. MONTEVIDEO;0;1;Leve;Activo;1;Cercado lima;-12.057843;-77.030045;1;-12.05;-77.03
20/01/2022;8;1;6;1;Avenida;AV TACNA;6;1;Leve;Activo;1;Cercado lima;-12.048117;-77.038727;1;-12.04;-77.03
21/01/2022;2;1;6;2;Jiron;JR. PUNO CERCADO DE LIMA;0;1;Leve;Activo;1;Cercado lima;-12.053128;-77.028949;1;-12.05;-77.02
23/01/2022;3;1;6;1;Avenida;AV ARGENTINA;4;1;Leve;Activo;1;Cercado lima;-12.044177;-77.047607;1;-12.04;-77.04
23/01/2022;11;1;7;1;Avenida;INTERSECCIONES DE LA AV. ABANCAY Y AV. GRAU;0;1;Leve;Activo;1;Cercado lima;-12.058661;-77.029852;1;-12.05;-77.02
24/01/2022;12;1;7;1;Avenida;GARCILASO DE LA VEGA;14;1;Leve;Activo;1;Cercado lima;-12.058036;-77.037919;1;-12.05;-77.03
24/01/2022;15;1;7;1;Avenida;GARCILAZO DE LA VEGA;13;1;Leve;Activo;1;Cercado lima;-12.056767;-77.0398989;1;-12.05;-77.03
25/01/2022;16;1;7;1;Avenida;GARCILAZO DE LA VEGA;3;1;Leve;Activo;1;Cercado lima;-12.050907;-77.03872;1;-12.05;-77.03
26/01/2022;12;1;7;2;Jiron;CDRA. O1 DEL JR. PUNO;1;1;Leve;Activo;1;Cercado lima;-12.050758;-77.032734;1;-12.05;-77.03
26/01/2022;3;1;1;1;Avenida;AV. GRAU CDRA. 18 - ESTACION GRAU;0;1;Leve;Activo;1;Cercado lima;-12.054631;-77.013258;1;-12.05;-77.01
26/01/2022;5;1;1;1;Avenida;GARCILAZO DE LA VEGA;13;1;Leve;Activo;1;Cercado lima;-12.056767;-77.0398989;1;-12.05;-77.03
26/01/2022;6;1;1;1;Avenida;GARCILASO DE LA VEGA;10;1;Leve;Activo;1;Cercado lima;-12.05399;-77.038268;1;-12.05;-77.03
27/01/2022;22;1;2;2;Jiron;INTERSECCIONES DEL JR HUANUCO Y JR CUZCO;0;1;Leve;Activo;1;Cercado lima;-12.05459;-77.018533;1;-12.05;-77.01
26/01/2022;23;1;2;1;Avenida;AV. GRAU CON AV. ABANCAY;0;1;Leve;Activo;1;Cercado lima;-12.058661;-77.029852;1;-12.05;-77.02
24/01/2022;24;1;3;2;Jiron;JR PUNO Y ABANCAY;0;1;Leve;Activo;1;Cercado lima;-12.052876;-77.029254;1;-12.05;-77.02
27/01/2022;1;1;4;2;Jiron;JR JUNIN Y HUANUCO;0;1;Leve;Activo;1;Cercado lima;-12.051075;-77.019316;1;-12.05;-77.01
27/01/2022;2;1;5;1;Avenida;ALFONSO UGARTE;8;1;Leve;Activo;1;Cercado lima;-12.05651;-77.04166;1;-12.05;-77.04
30/01/2022;4;1;6;1;Avenida;AV. GRAU Y AV. ABANCAY;0;1;Leve;Activo;1;Cercado lima;-12.058661;-77.029852;1;-12.05;-77.02
30/01/2022;6;1;7;1;Avenida;GARCILAZO DE LA VEGA;0;1;Leve;Activo;1;Cercado lima;-12.060718;-77.037921;1;-12.06;-77.03
27/01/2022;7;1;1;1;Avenida;AV. GRAU;2;1;Leve;Activo;1;Cercado lima;-12.059282;-77.033137;1;-12.05;-77.03
31/01/2022;4;1;2;1;Avenida;GARCILAZO DE LA VEGA;13;1;Leve;Activo;1;Cercado lima;-12.056767;-77.0398989;1;-12.05;-77.03
31/01/2022;9;1;3;2;Jiron;HUANUCO;12;1;Leve;Activo;1;Cercado lima;-12.057034;-77.017739;1;-12.05;-77.01
2/02/2022;9;1;4;1;Avenida;AV. GRAU - JUNIN CERCADO DE LIMA;0;1;Leve;Activo;1;Cercado lima;-12.053603;-77.012389;1;-12.05;-77.01
2/02/2022;9;1;5;1;Avenida;GARCILAZO DE LA VEGA;0;1;Leve;Activo;1;Cercado lima;-12.060718;-77.037921;1;-12.06;-77.03
4/02/2022;10;1;6;1;Avenida;AV. GRAU CON ABANBAY;0;1;Leve;Activo;1;Cercado lima;-12.058661;-77.029852;1;-12.05;-77.02
2/02/2022;11;1;7;1;Avenida;AV. ARGENTINA;8;1;Leve;Activo;1;Cercado lima;-12.044502;-77.052939;1;-12.04;-77.05
4/02/2022;12;1;1;1;Avenida;AV. GRAU CON EL PASEO DE LA REPUBLICA;0;1;Leve;Activo;1;Cercado lima;-12.059589;-77.03517;1;-12.05;-77.03
4/02/2022;14;1;2;1;Avenida;AV. ABANCAY CON EL JIRON PUNO;0;1;Leve;Activo;1;Cercado lima;-12.052848;-77.029337;1;-12.05;-77.02
5/02/2022;16;1;2;1;Avenida;AV. GARCILASO DE LA VEGA;13;1;Leve;Activo;1;Cercado lima;-12.056767;-77.0398989;1;-12.05;-77.03
2/02/2022;17;1;2;1;Avenida;INTERSECCION DE LA  AV. ABANCAY CON EL JIRON PUNO CERCADO DE LIMA;0;1;Leve;Activo;1;Cercado lima;-12.052848;-77.029337;1;-12.05;-77.02
4/02/2022;18;2;2;2;Jiron;JIRON HUANUCO;2;1;Leve;Activo;1;Cercado lima;-12.044632;-77.019327;1;-12.04;-77.01
6/02/2022;2;2;2;1;Avenida;AV. ABANCAY CON GRAU CERCADO DE LIMA;0;1;Leve;Activo;1;Cercado lima;-12.058661;-77.029852;1;-12.05;-77.02
1/02/2022;3;2;2;1;Avenida;GARCILAZO DE LA VEGA;0;1;Leve;Activo;1;Cercado lima;-12.060718;-77.037921;1;-12.06;-77.03
7/02/2022;4;2;3;1;Avenida;AV. NICOLAS AYLLON / AV. GRAU;1;1;Leve;Activo;1;Cercado lima;-12.059797;-77.034789;1;-12.05;-77.03
8/02/2022;5;2;3;1;Avenida;AV. NICOLAS AYLLON Y GRAU CERCADO DE LIMA;0;1;Leve;Activo;1;Cercado lima;-12.055114;-77.013269;1;-12.05;-77.01
27/01/2022;1;2;4;2;Jiron;INTERSECCION DEL JR. HUANUCO CON EL JR. JUNIN;0;1;Leve;Activo;1;Cercado lima;-12.051075;-77.019316;1;-12.05;-77.01
4/02/2022;23;2;4;2;Jiron;JJR. PUNO CON ANDAHUAYLAS;0;1;Leve;Activo;1;Cercado lima;-12.054709;-77.026828;1;-12.05;-77.02
11/02/2022;24;2;4;1;Avenida;ALFONSO UGARTE;6;1;Leve;Activo;1;Cercado lima;-12.05482;-77.041778;1;-12.05;-77.04
3/02/2022;1;2;6;1;Avenida;CUADRA 16 DE LA AV. GRAU FRONTIS DEL HOSPITAL NACIONAL DOS DE MAYO CERCADO DE LIMA.;0;1;Leve;Activo;1;Cercado lima;-12.05695;-77.016176;1;-12.05;-77.01
11/02/2022;5;2;7;1;Avenida;GARCILAZO DE LA VEGA;9;1;Leve;Activo;1;Cercado lima;-12.053709;-77.038259;1;-12.05;-77.03
13/02/2022;6;2;6;1;Avenida;INTERSECCION DE LA AV. GRAU CON PASEO DE LA REPUBLICA  CERCADO DE LIMA;0;1;Leve;Activo;1;Cercado lima;-12.059589;-77.03517;1;-12.05;-77.03
13/02/2022;2;2;6;2;Jiron;JR. PUNO;11;1;Leve;Activo;1;Cercado lima;-12.055478;-77.021783;1;-12.05;-77.02
13/02/2022;5;2;1;2;Jiron;HUANUCO;8;1;Leve;Activo;1;Cercado lima;-12.054379;-77.018657;1;-12.05;-77.01
13/02/2022;6;2;2;2;Jiron;CARABAYA CON EL JIRON PUNO;0;1;Leve;Activo;1;Cercado lima;-12.050478;-77.033042;1;-12.05;-77.03
14/02/2022;7;2;3;1;Avenida;GARCILAZO DE LA VEGA;15;1;Leve;Activo;1;Cercado lima;-12.061211;-77.037605;1;-12.06;-77.03
14/02/2022;3;2;2;2;Jiron;JR. PARURO CON JR. PUNO CERCADO DE LIMA;0;1;Leve;Activo;1;Cercado lima;-12.054613;-77.02685;1;-12.05;-77.02
16/02/2022;11;2;2;2;Jiron;JIRON PARURO CON PUNO;0;1;Leve;Activo;1;Cercado lima;-12.054613;-77.02685;1;-12.05;-77.02
16/02/2022;12;2;2;2;Jiron;JIRON PUNO CON ANDAHUAYLAS REF. GALERIA MINA DE ORO;0;1;Leve;Activo;1;Cercado lima;-12.054636;-77.026898;1;-12.05;-77.02
16/02/2022;13;2;2;1;Avenida;AV GARCILASO DE LA VEGA INT 2038;13;1;Leve;Activo;1;Cercado lima;-12.056767;-77.0398989;1;-12.05;-77.03
18/02/2022;14;2;2;2;Jiron;JR  DE LA UNION  CON PUNO;0;1;Leve;Activo;1;Cercado lima;-12.049888;-77.034017;1;-12.04;-77.03
18/02/2022;12;2;3;2;Jiron;JR. JUNIN - JR. HUANUCO - BARRIOS ALTOS - CERCADO DE LIMA;0;1;Leve;Activo;1;Cercado lima;-12.051075;-77.019316;1;-12.05;-77.01
3/02/2022;5;2;3;1;Avenida;INTERSECCION AV. ABANCAY Y JR. MONTEVIDEO CERCADO DE LIMA.;0;1;Leve;Activo;1;Cercado lima;-12.057843;-77.030045;1;-12.05;-77.03
18/02/2022;6;2;4;1;Avenida;AV. GRAU CON JR. HUANUCO;0;1;Leve;Activo;1;Cercado lima;-12.057265;-77.017474;1;-12.05;-77.01
20/02/2022;7;2;4;1;Avenida;ALFONSO UGARTE;8;1;Leve;Activo;1;Cercado lima;-12.05651;-77.04166;1;-12.05;-77.04
19/02/2022;8;2;4;1;Avenida;ABANCAY;5;1;Leve;Activo;1;Cercado lima;-12.051295;-77.028572;1;-12.05;-77.02
20/02/2022;2;2;4;1;Avenida;AV. GARCILASO DE VEGA;13;1;Leve;Activo;1;Cercado lima;-12.056767;-77.0398989;1;-12.05;-77.03
18/02/2022;3;2;6;1;Avenida;CRUCE AV. ABANCAY Y JR. MONTEVIDEO CERCADO DE LIMA.;0;1;Leve;Activo;1;Cercado lima;-12.057843;-77.030045;1;-12.05;-77.03
21/02/2022;11;2;6;1;Avenida;INTERSECCION DEL JR. LUCANAS Y AV. GRAU BARRIOS ALTOS CERCADO DE LIMA.;0;1;Leve;Activo;1;Cercado lima;-12.057517;-77.019524;1;-12.05;-77.01
23/02/2022;12;2;6;1;Avenida;AV. ALFONSO UGARTE;5;1;Leve;Activo;1;Cercado lima;-12.044046;-77.042761;1;-12.04;-77.04
20/02/2022;15;2;7;1;Avenida;AV. MIGUEL GRAU ALTURA UNMS CERCADO DE LIMA;0;1;Leve;Activo;1;Cercado lima;-12.058031;-77.02389;1;-12.05;-77.02
24/02/2022;16;2;7;2;Jiron;JR HUANUCO;5;1;Leve;Activo;1;Cercado lima;-12.047717;-77.019842;1;-12.04;-77.01
25/02/2022;12;2;7;1;Avenida;AV. ABANCAY CON AV. GRAU;0;1;Leve;Activo;1;Cercado lima;-12.058661;-77.029852;1;-12.05;-77.02
24/02/2022;3;2;7;1;Avenida;GARCILAZO DE LA VEGA;13;1;Leve;Activo;1;Cercado lima;-12.056767;-77.0398989;1;-12.05;-77.03
26/02/2022;5;2;7;2;Jiron;CUADRA 3 DEL JR PUNO;0;1;Leve;Activo;1;Cercado lima;-12.05163;-77.031275;1;-12.05;-77.03
27/02/2022;6;2;1;1;Avenida;AV. NICOLAS AYLLON / AV. GRAU;0;1;Leve;Activo;1;Cercado lima;-12.059797;-77.034789;1;-12.05;-77.03
1/01/2022;22;2;1;1;Avenida;ALFONSO UGARTE;8;1;Leve;Activo;1;Cercado lima;-12.05651;-77.04166;1;-12.05;-77.04
28/02/2022;23;2;1;2;Jiron;JIRON HUANUCO FRONTIS DE LA IGLESIA COCHARCA;9;2;Moderado;Activo;1;Cercado lima;-12.055419;-77.018211;1;-12.05;-77.01
28/02/2022;24;2;2;2;Jiron;JR ANCASH Y HUANUCO;0;2;Moderado;Activo;1;Cercado lima;-12.047728;-77.019756;1;-12.04;-77.01
1/03/2022;1;2;2;1;Avenida;AV. ARGENTINA;13;2;Moderado;Activo;1;Cercado lima;-12.045042;-77.059186;1;-12.04;-77.05
27/02/2022;2;2;3;1;Avenida;ALFONSO UGARTE;9;2;Moderado;Activo;1;Cercado lima;-12.05651;-77.04166;1;-12.05;-77.04
1/03/2022;4;2;4;1;Avenida;TACNA;2;2;Moderado;Activo;1;Cercado lima;-12.04413;-77.035787;1;-12.04;-77.03
1/03/2022;6;2;5;2;Jiron;JR HUANUCO;2;2;Moderado;Activo;1;Cercado lima;-12.044632;-77.019327;1;-12.04;-77.01
2/03/2022;7;2;6;1;Avenida;AV. GRAU . REFERENCIA HOSPITAL ESSALUD GRAU CERCADO DE LIMA;0;2;Moderado;Activo;1;Cercado lima;-12.057873;-77.022367;1;-12.05;-77.02
27/02/2022;4;2;7;1;Avenida;GARCILAZO DE LA VEGA;13;2;Moderado;Activo;1;Cercado lima;-12.056767;-77.0398989;1;-12.05;-77.03
2/03/2022;9;2;1;1;Avenida;TACNA;4;2;Moderado;Activo;1;Cercado lima;-12.045578;-77.037053;1;-12.04;-77.03
2/03/2022;9;2;2;1;Avenida;AV. GRAU / JR. ABTAO;0;2;Moderado;Activo;1;Cercado lima;-12.057978;-77.023257;1;-12.05;-77.02
2/03/2022;9;2;3;2;Jiron;JR JAUJA Y HUANUCO;0;2;Moderado;Activo;1;Cercado lima;-12.046186;-77.019896;1;-12.04;-77.01
3/03/2022;10;2;4;1;Avenida;INTERSECCIONES DE LA AV. ABANCAY Y JR MONTEVIDEO;0;2;Moderado;Activo;1;Cercado lima;-12.057843;-77.030045;1;-12.05;-77.03
3/03/2022;11;2;5;1;Avenida;ALFONSO UGARTE;8;2;Moderado;Activo;1;Cercado lima;-12.05651;-77.04166;1;-12.05;-77.04
23/02/2022;12;2;6;1;Avenida;TACNA;1;2;Moderado;Activo;1;Cercado lima;-12.043186;-77.035187;1;-12.04;-77.03
4/03/2022;14;2;7;1;Avenida;AV. ARGENTINA;1;2;Moderado;Activo;1;Cercado lima;-12.043772;-77.044251;1;-12.04;-77.04
7/03/2022;16;2;1;1;Avenida;AV. GRAU;14;2;Moderado;Activo;1;Cercado lima;-12.055195;-77.013786;1;-12.05;-77.01
9/03/2022;17;2;2;1;Avenida;ABANCAY;2;2;Moderado;Activo;1;Cercado lima;-12.04709;-77.026303;1;-12.04;-77.02
12/03/2022;18;2;2;2;Jiron;JR. JUNIN Y JR. HUANUCO;0;2;Moderado;Activo;1;Cercado lima;-12.051075;-77.019316;1;-12.05;-77.01
12/03/2022;2;2;2;1;Avenida;AV. ABANCAY Y JR. MONTEVIDEO;0;2;Moderado;Activo;1;Cercado lima;-12.057843;-77.030045;1;-12.05;-77.03
13/03/2022;3;2;2;1;Avenida;AV. ARGENTINA;3;2;Moderado;Activo;1;Cercado lima;-12.044062;-77.046813;1;-12.04;-77.04
8/03/2022;4;2;2;1;Avenida;AV. GARCILASO DE LA VEGA;8;2;Moderado;Activo;1;Cercado lima;-12.053279;-77.038313;1;-12.05;-77.03
13/03/2022;5;2;2;2;Jiron;HUANUCO;13;2;Moderado;Activo;1;Cercado lima;-12.057076;-77.017696;1;-12.05;-77.01
13/03/2022;1;2;3;2;Jiron;HUANUCO;13;2;Moderado;Activo;1;Cercado lima;-12.057076;-77.017696;1;-12.05;-77.01
14/03/2022;23;2;3;1;Avenida;AV. ABANCAY CON MONTEVIDEO CERCADO DE LIMA;0;2;Moderado;Activo;1;Cercado lima;-12.057843;-77.030045;1;-12.05;-77.03
15/03/2022;24;2;4;1;Avenida;AV. ARGENTINA CON JR. RAMON CARCAMO;5;2;Moderado;Activo;1;Cercado lima;-12.04423;-77.04853;1;-12.04;-77.04
15/03/2022;1;2;4;1;Avenida;AV. ARGENTINA;14;2;Moderado;Activo;1;Cercado lima;-12.045098;-77.06036;1;-12.04;-77.06
19/03/2022;5;2;4;2;Jiron;JR HUANUCO;7;2;Moderado;Activo;1;Cercado lima;-12.052019;-77.019134;1;-12.05;-77.01
19/03/2022;6;2;6;1;Avenida;GARCILAZO DE LA VEGA;14;2;Moderado;Activo;1;Cercado lima;-12.058036;-77.037919;1;-12.05;-77.03
14/03/2022;2;2;7;1;Avenida;AV. INCA GARCILASO DE LA VEGA Y AV. URUGUAY;0;2;Moderado;Activo;1;Cercado lima;-12.054066;-77.038227;1;-12.05;-77.03
21/03/2022;5;2;6;1;Avenida;AV. ARGENTINA;23;2;Moderado;Activo;1;Cercado lima;-12.046017;-77.069975;1;-12.04;-77.06
22/03/2022;6;2;6;1;Avenida;AV. ABANCAY CON JR. MONTEVIDEO;0;2;Moderado;Activo;1;Cercado lima;-12.057843;-77.030045;1;-12.05;-77.03
22/03/2022;7;2;1;2;Jiron;JR. PUNO;9;2;Moderado;Activo;1;Cercado lima;-12.055213;-77.023138;1;-12.05;-77.02
22/03/2022;3;2;2;2;Jiron;PUNO;15;2;Moderado;Activo;1;Cercado lima;-12.055761;-77.017446;1;-12.05;-77.01
23/03/2022;11;2;3;1;Avenida;AV. ARGENTINA;3;2;Moderado;Activo;1;Cercado lima;-12.044062;-77.046813;1;-12.04;-77.04
22/03/2022;12;2;2;1;Avenida;AV. INCA GARCILASO DE LA VEGA Y JR. RUFINO TORRICO;0;2;Moderado;Activo;1;Cercado lima;-12.050939;-77.038763;1;-12.05;-77.03
24/03/2022;13;2;2;1;Avenida;ABANCAY;4;2;Moderado;Activo;1;Cercado lima;-12.050298;-77.028067;1;-12.05;-77.02
24/03/2022;14;2;2;2;Jiron;JR. HUANUCO;7;2;Moderado;Activo;1;Cercado lima;-12.052019;-77.019134;1;-12.05;-77.01
24/03/2022;12;2;2;2;Jiron;HUANUCO;8;2;Moderado;Activo;1;Cercado lima;-12.054379;-77.018657;1;-12.05;-77.01
24/03/2022;5;2;2;1;Avenida;AV. ARGENTINA;13;2;Moderado;Activo;1;Cercado lima;-12.045042;-77.059186;1;-12.04;-77.05
25/03/2022;6;2;3;1;Avenida;UNIVERSITARIA Y AV. ARGENTINA;9;2;Moderado;Activo;1;Cercado lima;-12.044401;-77.05462;1;-12.04;-77.05
26/03/2022;7;2;3;1;Avenida;AV. ARGENTINA;13;2;Moderado;Activo;1;Cercado lima;-12.045042;-77.059186;1;-12.04;-77.05
25/03/2022;8;2;4;1;Avenida;AV. INCA GARCILASO DE LA VEGA NRO. 1337 - 2038;13;2;Moderado;Activo;1;Cercado lima;-12.056767;-77.0398989;1;-12.05;-77.03
26/03/2022;2;2;4;1;Avenida;ABANCAY;4;2;Moderado;Activo;1;Cercado lima;-12.050298;-77.028067;1;-12.05;-77.02
24/03/2022;3;2;4;1;Avenida;TACNA;6;2;Moderado;Activo;1;Cercado lima;-12.048117;-77.038727;1;-12.04;-77.03
29/03/2022;11;2;4;2;Jiron;JR. JUNIN - JR. HUANUCO - BARRIOS ALTOS - CERCADO DE LIMA;0;2;Moderado;Activo;1;Cercado lima;-12.051075;-77.019316;1;-12.05;-77.01
30/03/2022;12;2;6;1;Avenida;AV. ARGENTINA;4;2;Moderado;Activo;1;Cercado lima;-12.044177;-77.047607;1;-12.04;-77.04
29/03/2022;15;2;6;2;Jiron;JR HUANUCO;3;2;Moderado;Activo;1;Cercado lima;-12.042954;-77.019563;1;-12.04;-77.01
31/03/2022;16;2;6;1;Avenida;AV TACNA;3;2;Moderado;Activo;1;Cercado lima;-12.045137;-77.036538;1;-12.04;-77.03
31/03/2022;12;2;7;1;Avenida;AV. ALFONSO UGARTE;9;2;Moderado;Activo;1;Cercado lima;-12.059458;-77.041445;1;-12.05;-77.04
31/03/2022;3;2;7;1;Avenida;AV. GARCILASO DE LA VEGA - CERCADO DE LIMA;17;2;Moderado;Activo;1;Cercado lima;-12.063571;-77.037744;1;-12.06;-77.03
5/04/2022;5;2;7;1;Avenida;AV. GRAU Y NICOLAS AYLLON;0;2;Moderado;Activo;1;Cercado lima;-12.059797;-77.034789;1;-12.05;-77.03
5/04/2022;6;2;7;1;Avenida;INTERSECCIONES DEL JR. HUANTA Y AV. GRAU;0;2;Moderado;Activo;1;Cercado lima;-12.058064;-77.024219;1;-12.05;-77.02
4/04/2022;22;2;7;1;Avenida;ABANCAY;2;2;Moderado;Activo;1;Cercado lima;-12.04709;-77.026303;1;-12.04;-77.02
7/04/2022;23;2;1;1;Avenida;AV. JUNIN Y GRAU;0;2;Moderado;Activo;1;Cercado lima;-12.053603;-77.012389;1;-12.05;-77.01
8/04/2022;24;2;1;2;Jiron;INTERSECCION DEL JR. JUNIN CON HUANUCO;0;2;Moderado;Activo;1;Cercado lima;-12.051075;-77.019316;1;-12.05;-77.01
7/04/2022;1;2;1;1;Avenida;AV. INCA GARCILASO DE LA VEGA 1261 STAND 412;12;2;Moderado;Activo;1;Cercado lima;-12.055155;-77.038182;1;-12.05;-77.03
8/04/2022;2;2;2;2;Jiron;JIRON AYACUCHO CON PUNO;0;2;Moderado;Activo;1;Cercado lima;-12.053387;-77.028522;1;-12.05;-77.02
11/04/2022;4;2;2;2;Jiron;HUANUCO;4;2;Moderado;Activo;1;Cercado lima;-12.047046;-77.019863;1;-12.04;-77.01
9/04/2022;6;2;3;2;Jiron;JR. HUANUCO;9;2;Moderado;Activo;1;Cercado lima;-12.055419;-77.018211;1;-12.05;-77.01
12/04/2022;7;2;4;1;Avenida;ABANCAY;11;2;Moderado;Activo;1;Cercado lima;12.057897;-77.0282873;1;12.057;-77.02
12/04/2022;4;2;5;1;Avenida;AV. GRAU CON LA AV. ABANCAY (PARADERO VIA EXPRESA DE GRAU);0;2;Moderado;Activo;1;Cercado lima;-12.058661;-77.029852;1;-12.05;-77.02
12/04/2022;9;2;6;1;Avenida;AV. BOLIVIA E INCA GARCILASO DE LA VEGA;0;2;Moderado;Activo;1;Cercado lima;-12.05399;-77.038268;1;-12.05;-77.03
15/04/2022;9;2;7;1;Avenida;ALFONSO UGARTE;7;2;Moderado;Activo;1;Cercado lima;-12.056772;-77.041649;1;-12.05;-77.04
15/04/2022;9;2;1;1;Avenida;TACNA;6;2;Moderado;Activo;1;Cercado lima;-12.048117;-77.038727;1;-12.04;-77.03
13/04/2022;10;2;2;2;Jiron;JR. PUNO NRO. 135;1;2;Moderado;Activo;1;Cercado lima;-12.050758;-77.032734;1;-12.05;-77.03
16/04/2022;11;2;3;1;Avenida;AV. INCA GARCILASO DE LA VEGA 865 - 869;8;2;Moderado;Activo;1;Cercado lima;-12.053279;-77.038313;1;-12.05;-77.03
18/04/2022;12;2;4;1;Avenida;AV. ARGENTINA;9;2;Moderado;Activo;1;Cercado lima;-12.044401;-77.05462;1;-12.04;-77.05
19/04/2022;14;2;5;1;Avenida;INTERSECCION DE LA AV. GRAU Y AV. CARLOS ZAVALA CERCADO DE LIMA.;0;2;Moderado;Activo;1;Cercado lima;-12.058988;-77.031569;1;-12.05;-77.03
19/04/2022;16;2;6;1;Avenida;GARCILAZO DE LA VEGA;17;2;Moderado;Activo;1;Cercado lima;-12.063571;-77.037744;1;-12.06;-77.03
17/04/2022;17;2;7;2;Jiron;JR. JUNIN CON HUANUCO;0;2;Moderado;Activo;1;Cercado lima;-12.051075;-77.019316;1;-12.05;-77.01
21/04/2022;18;2;1;1;Avenida;GARCILAZO DE LA VEGA;13;2;Moderado;Activo;1;Cercado lima;-12.056767;-77.0398989;1;-12.05;-77.03
21/04/2022;2;2;2;1;Avenida;AV GRAU PARTE BAJA CERCADO DE LIMA;0;2;Moderado;Activo;1;Cercado lima;-12.059505;-77.03481;1;-12.05;-77.03
23/04/2022;3;2;2;2;Jiron;JR. JUNIN Y JR. HUANUCO;0;2;Moderado;Activo;1;Cercado lima;-12.051075;-77.019316;1;-12.05;-77.01
23/04/2022;4;2;2;1;Avenida;INTERSECCIONES DE LA AV. ABANCAY YJR MONTEVIDEO;0;2;Moderado;Activo;1;Cercado lima;-12.057843;-77.030045;1;-12.05;-77.03
24/04/2022;5;2;2;1;Avenida;AV GRAU CDRA DOS CERCADO DE LIMA;0;2;Moderado;Activo;1;Cercado lima;-12.059282;-77.033137;1;-12.05;-77.03
23/04/2022;1;2;2;2;Jiron;JR. PUNO 258 CERCADO DE LIMA.;0;2;Moderado;Activo;1;Cercado lima;-12.050633;-77.032861;1;-12.05;-77.03
25/04/2022;23;2;2;1;Avenida;ALFONSO UGARTE;6;2;Moderado;Activo;1;Cercado lima;-12.05482;-77.041778;1;-12.05;-77.04
25/04/2022;24;2;3;2;Jiron;JR. HUANUCO - JR. JUNIN - BARRIOS ALTOS;0;2;Moderado;Activo;1;Cercado lima;-12.051075;-77.019316;1;-12.05;-77.01
26/04/2022;1;2;3;2;Jiron;PUNO;6;2;Moderado;Activo;1;Cercado lima;-12.053295;-77.028621;1;-12.05;-77.02
26/04/2022;5;2;4;1;Avenida;AV. MIGUEL GRAU;5;2;Moderado;Activo;1;Cercado lima;-12.058548;-77.027086;1;-12.05;-77.02
28/04/2022;6;2;4;2;Jiron;JR. HUANUCO;5;2;Moderado;Activo;1;Cercado lima;-12.047717;-77.019842;1;-12.04;-77.01
29/04/2022;2;2;4;1;Avenida;AV. GRAU;13;2;Moderado;Activo;1;Cercado lima;-12.056644;-77.01518;1;-12.05;-77.01
29/04/2022;5;2;6;1;Avenida;AV.ABANCAY CON AV. GRAU;0;2;Moderado;Activo;1;Cercado lima;-12.058661;-77.029852;1;-12.05;-77.02
29/04/2022;6;2;7;1;Avenida;AV. ARGENTINA;8;2;Moderado;Activo;1;Cercado lima;-12.044502;-77.052939;1;-12.04;-77.05
30/04/2022;7;2;6;1;Avenida;AV. BOLIVIA E INCA GARCILASO DE LA VEGA CC. REAL PLAZA;0;2;Moderado;Activo;1;Cercado lima;-12.05399;-77.038268;1;-12.05;-77.03
1/05/2022;3;2;6;1;Avenida;AV GRAU CDRA UNO CERCADO DE LIMA;0;2;Moderado;Activo;1;Cercado lima;-12.059797;-77.034789;1;-12.05;-77.03
3/05/2022;11;2;1;1;Avenida;AV. GARCILAZO  DELA VEGA;9;2;Moderado;Activo;1;Cercado lima;-12.053709;-77.038259;1;-12.05;-77.03
4/05/2022;12;2;2;1;Avenida;AV. GRAU CDRA. 05 LIMA;0;2;Moderado;Activo;1;Cercado lima;-12.058548;-77.027086;1;-12.05;-77.02
5/05/2022;13;2;3;2;Jiron;JR. JUNIN CON JR. HUANUCO;0;2;Moderado;Activo;1;Cercado lima;-12.051075;-77.019316;1;-12.05;-77.01
23/04/2022;14;2;2;1;Avenida;AV. ARGENTINA;1;2;Moderado;Activo;1;Cercado lima;-12.043772;-77.044251;1;-12.04;-77.04
6/05/2022;12;2;2;1;Avenida;AV. ABANCAY CON JR. MONTEVIDEO;0;2;Moderado;Activo;1;Cercado lima;-12.057843;-77.030045;1;-12.05;-77.03
6/05/2022;5;2;2;1;Avenida;AV. ARGENTINA;4;2;Moderado;Activo;1;Cercado lima;-12.044177;-77.047607;1;-12.04;-77.04
8/05/2022;6;2;2;1;Avenida;AV. ARGENTINA;3;2;Moderado;Activo;1;Cercado lima;-12.044062;-77.046813;1;-12.04;-77.04
10/05/2022;7;2;2;2;Jiron;CUADRA 4 DEL JR. PUNO CERCADO DE LIMA.;0;2;Moderado;Activo;1;Cercado lima;-12.052907;-77.029276;1;-12.05;-77.02
10/05/2022;8;2;3;1;Avenida;AV GARCILASO VEGA 1900- HOTEL GARCILASO-LIMA;0;2;Moderado;Activo;1;Cercado lima;-12.063739;-77.037669;1;-12.06;-77.03
11/05/2022;2;2;3;2;Jiron;JR. HUANUCO CDRA. 5;0;2;Moderado;Activo;1;Cercado lima;-12.047717;-77.019842;1;-12.04;-77.01
11/05/2022;3;2;4;1;Avenida;AV. ARGENTINA;10;2;Moderado;Activo;1;Cercado lima;-12.044748;-77.055763;1;-12.04;-77.05
12/05/2022;11;2;4;1;Avenida;AV. GRAU CON JR. AYACUCHO;0;2;Moderado;Activo;1;Cercado lima;-12.058653;-77.028436;1;-12.05;-77.02
12/05/2022;12;2;4;2;Jiron;JR. AMAZONAS - JR. HUANUCO - BARRIOS ALTOS;0;2;Moderado;Activo;1;Cercado lima;-12.045241;-77.019724;1;-12.04;-77.01
13/05/2022;15;2;4;1;Avenida;AV. ABANCAY CON AV. GRAU CERCADO DE LIMA;0;2;Moderado;Activo;1;Cercado lima;-12.058661;-77.029852;1;-12.05;-77.02
14/05/2022;16;3;6;2;Jiron;JR HUANUCO;10;2;Moderado;Activo;1;Cercado lima;-12.055733;-77.018082;1;-12.05;-77.01
14/05/2022;12;3;6;1;Avenida;INTERSECCIONES DE LA AV. GRAU Y JR LUCANAS;0;2;Moderado;Activo;1;Cercado lima;-12.057431;-77.019499;1;-12.05;-77.01
13/05/2022;3;3;6;1;Avenida;AV. INCA GARCILASO DE LA VEGA Y AV. BOLIVIA;0;2;Moderado;Activo;1;Cercado lima;-12.05399;-77.038268;1;-12.05;-77.03
16/05/2022;5;3;7;1;Avenida;JR LUCANAS CON AV GRAU CERCADO DE LIMA;0;2;Moderado;Activo;1;Cercado lima;-12.057431;-77.019499;1;-12.05;-77.01
17/05/2022;6;3;7;2;Jiron;JR. HUANUCO Y JR. MIROQUEZADA;0;2;Moderado;Activo;1;Cercado lima;-12.053142;-77.018844;1;-12.05;-77.01
17/05/2022;22;3;7;1;Avenida;AV. GRAU;14;2;Moderado;Activo;1;Cercado lima;-12.056081;-77.014494;1;-12.05;-77.01
13/05/2022;23;3;7;1;Avenida;ALFONSO UGARTE;8;2;Moderado;Activo;1;Cercado lima;-12.05651;-77.04166;1;-12.05;-77.04
20/05/2022;24;3;7;2;Jiron;JR. PUNO N 1186;0;2;Moderado;Activo;1;Cercado lima;-12.055479;-77.021854;1;-12.05;-77.02
20/05/2022;1;3;1;1;Avenida;AV.ABANCAY CON AV. GRAU;0;2;Moderado;Activo;1;Cercado lima;-12.058661;-77.029852;1;-12.05;-77.02
20/05/2022;2;3;1;1;Avenida;PASEO DE LA REPUBLICA CON AV. GRAU;0;2;Moderado;Activo;1;Cercado lima;-12.059589;-77.03517;1;-12.05;-77.03
20/05/2022;4;3;1;2;Jiron;JR. HUANUCO Y JR. AMAZONAS;0;2;Moderado;Activo;1;Cercado lima;-12.045241;-77.019724;1;-12.04;-77.01
22/05/2022;6;3;2;1;Avenida;INTERSECCION DE LA AV. GRAU CON JR HUANUCO;0;2;Moderado;Activo;1;Cercado lima;-12.057265;-77.017474;1;-12.05;-77.01
17/05/2022;7;3;2;2;Jiron;CRUCE DEL JR. AMAZONAS CON JR. HUANUCO;0;2;Moderado;Activo;1;Cercado lima;-12.045241;-77.019724;1;-12.04;-77.01
15/05/2022;4;3;3;1;Avenida;AV. GRAU CDRA DOS CERCADO DE LIMA;0;2;Moderado;Activo;1;Cercado lima;-12.059282;-77.033137;1;-12.05;-77.03
25/05/2022;9;3;4;2;Jiron;JR CARABAYA CON JR PUNO CERCADO DE LIMA;0;2;Moderado;Activo;1;Cercado lima;-12.050478;-77.033042;1;-12.05;-77.03
24/05/2022;9;3;5;1;Avenida;TACNA;4;2;Moderado;Activo;1;Cercado lima;-12.045578;-77.037053;1;-12.04;-77.03
26/05/2022;9;3;6;2;Jiron;INTERSECCION DEL JR. LAMPA Y JR. PUNO CERCADO DE LIMA.;0;2;Moderado;Activo;1;Cercado lima;-12.051201;-77.03196;1;-12.05;-77.03
25/05/2022;10;3;7;1;Avenida;AV. NICOLAS DE PIEROLA E INCA GARCILASO DE LA VEGA;0;2;Moderado;Activo;1;Cercado lima;-12.05395;-77.0385701;1;-12.05;-77.03
26/05/2022;11;3;1;2;Jiron;JR. HUANUCO - LIMA CERCADO;3;2;Moderado;Activo;1;Cercado lima;-12.042954;-77.019563;1;-12.04;-77.01
11/05/2022;12;3;2;1;Avenida;INTERSECCIONES DE LA AV. MIGUEL GRAU Y JR. LA MAR;0;2;Moderado;Activo;1;Cercado lima;-12.05762;-77.020464;1;-12.05;-77.02
26/05/2022;14;3;3;1;Avenida;AV. ARGENTINA;9;2;Moderado;Activo;1;Cercado lima;-12.044401;-77.05462;1;-12.04;-77.05
26/05/2022;16;3;4;1;Avenida;AV. ARGENTINA NRO. 344;3;2;Moderado;Activo;1;Cercado lima;-12.044062;-77.046813;1;-12.04;-77.04
26/05/2022;17;3;5;1;Avenida;AV. GARCILASO DE LA VEGA Y BOLIVIA (CC. REAL PLAZA);0;2;Moderado;Activo;1;Cercado lima;-12.055902;-77.038205;1;-12.05;-77.03
27/05/2022;18;3;6;2;Jiron;HUANUCO;3;2;Moderado;Activo;1;Cercado lima;-12.042954;-77.019563;1;-12.04;-77.01
27/05/2022;2;3;7;1;Avenida;TACNA;6;2;Moderado;Activo;1;Cercado lima;-12.048117;-77.038727;1;-12.04;-77.03
28/05/2022;3;3;1;1;Avenida;GRAU;16;2;Moderado;Activo;1;Cercado lima;-12.054942;-77.013589;1;-12.05;-77.01
30/05/2022;4;3;2;1;Avenida;AV. GARCILASO DE LA VEGA Y BOLIVIA;0;2;Moderado;Activo;1;Cercado lima;-12.055902;-77.038205;1;-12.05;-77.03
30/05/2022;5;3;2;1;Avenida;AV. GARCILASO DE LA VEGA Y BOLIVIA (CC. REAL PLAZA);0;2;Moderado;Activo;1;Cercado lima;-12.055902;-77.038205;1;-12.05;-77.03
30/05/2022;1;3;2;1;Avenida;AV. GARCILASO DE LA VEGA Y BOLIVIA;0;2;Moderado;Activo;1;Cercado lima;-12.055902;-77.038205;1;-12.05;-77.03
30/05/2022;23;3;2;1;Avenida;AV. ALFONSO UGARTE CDRA. 08;8;2;Moderado;Activo;1;Cercado lima;-12.05651;-77.04166;1;-12.05;-77.04
10/05/2022;24;3;2;1;Avenida;AV. GRAU;2;2;Moderado;Activo;1;Cercado lima;-12.059282;-77.033137;1;-12.05;-77.03
30/05/2022;1;3;2;1;Avenida;AV ARGENTINA;18;2;Moderado;Activo;1;Cercado lima;-12.045612;-77.064802;1;-12.04;-77.06
30/05/2022;5;3;3;2;Jiron;JR HUANUCO;5;2;Moderado;Activo;1;Cercado lima;-12.047717;-77.019842;1;-12.04;-77.01
31/05/2022;6;3;3;2;Jiron;JR HUANUCO;5;2;Moderado;Activo;1;Cercado lima;-12.047717;-77.019842;1;-12.04;-77.01
1/06/2022;2;3;4;1;Avenida;AV. GARCILASO DE VEGA Y PASEO COLON;0;2;Moderado;Activo;1;Cercado lima;-12.05971;-77.037964;1;-12.05;-77.03
1/06/2022;5;3;4;1;Avenida;AV. GRAU CON EL JIRON ANDAHUAYLAS;0;2;Moderado;Activo;1;Cercado lima;-12.05838;-77.026757;1;-12.05;-77.02
1/06/2022;6;3;4;1;Avenida;C.C. LA BELLOTA AV. ARGENTINA;3;2;Moderado;Activo;1;Cercado lima;-12.044062;-77.046813;1;-12.04;-77.04
3/06/2022;7;3;6;2;Jiron;JR. PUNO 1235 BARRIOS ALTOS CERCADO DE LIMA.;0;2;Moderado;Activo;1;Cercado lima;-12.055642;-77.020336;1;-12.05;-77.02
4/06/2022;3;3;7;1;Avenida;AV. GRAU CON PASEO DE LA REPUBLICA;0;2;Moderado;Activo;1;Cercado lima;-12.059589;-77.03517;1;-12.05;-77.03
4/06/2022;11;3;6;2;Jiron;JR. PUNO;16;2;Moderado;Activo;1;Cercado lima;-12.054958;-77.024536;1;-12.05;-77.02
4/06/2022;12;3;6;2;Jiron;JR. HUANTA CON JR. PUNO;0;2;Moderado;Activo;1;Cercado lima;-12.055108;-77.023544;1;-12.05;-77.02
5/06/2022;13;3;1;1;Avenida;AV GRAU CON CARLOS ZAVALA CERCADO DE LIMA;0;2;Moderado;Activo;1;Cercado lima;-12.058988;-77.031569;1;-12.05;-77.03
5/06/2022;14;3;2;1;Avenida;AV. GRAU CUADRA 1;0;2;Moderado;Activo;1;Cercado lima;-12.059797;-77.034789;1;-12.05;-77.03
5/06/2022;12;3;3;1;Avenida;AV. BOLIVIA Y GARCILASO DE LA VEGA CC. REAL PLAZA;0;2;Moderado;Activo;1;Cercado lima;-12.055902;-77.038205;1;-12.05;-77.03
8/06/2022;5;3;2;1;Avenida;AV. GRAU CON AVIACION;0;2;Moderado;Activo;1;Cercado lima;-12.056364;-77.014737;1;-12.05;-77.01
9/06/2022;6;3;2;1;Avenida;AV. GRAU CON EL JR. CANGALLO;0;2;Moderado;Activo;1;Cercado lima;-12.057796;-77.021866;1;-12.05;-77.02
9/06/2022;7;3;2;1;Avenida;AV. ARGENTINA;15;2;Moderado;Activo;1;Cercado lima;-12.045098;-77.06036;1;-12.04;-77.06
10/06/2022;8;3;2;1;Avenida;INTERSECCIONES DE LA AV. GRAU Y AV. ABANCAY;0;2;Moderado;Activo;1;Cercado lima;-12.058661;-77.029852;1;-12.05;-77.02
10/06/2022;2;3;2;1;Avenida;AV. NICOLAS AYLLON Y GRAU CERCADO DE LIMA;0;2;Moderado;Activo;1;Cercado lima;-12.054869;-77.013498;1;-12.05;-77.01
11/06/2022;3;3;3;1;Avenida;AV. ARGENTINA;14;2;Moderado;Activo;1;Cercado lima;-12.045098;-77.06036;1;-12.04;-77.06
10/06/2022;11;3;3;2;Jiron;JR JUNIN - HUANUCO;0;2;Moderado;Activo;1;Cercado lima;-12.051075;-77.019316;1;-12.05;-77.01
12/06/2022;12;3;4;1;Avenida;AV. ARGENTINA .;12;2;Moderado;Activo;1;Cercado lima;-12.044968;-77.058328;1;-12.04;-77.05
13/06/2022;15;3;4;2;Jiron;JR. HUANUCO JR. AMAZONAS;0;2;Moderado;Activo;1;Cercado lima;-12.045241;-77.019724;1;-12.04;-77.01
15/06/2022;16;3;4;1;Avenida;AV ABANCAY CON GRAU CERCADO DE LIMA;0;2;Moderado;Activo;1;Cercado lima;-12.058661;-77.029852;1;-12.05;-77.02
15/06/2022;12;3;4;1;Avenida;AV. ABANCAY CON GRAU CERCDO DE LIMA;0;2;Moderado;Activo;1;Cercado lima;-12.058661;-77.029852;1;-12.05;-77.02
17/06/2022;3;3;6;2;Jiron;PUNO;1;2;Moderado;Activo;1;Cercado lima;-12.050758;-77.032734;1;-12.05;-77.03
17/06/2022;5;3;6;1;Avenida;AV. GRAU, HUANUCO,;0;2;Moderado;Activo;1;Cercado lima;-12.057265;-77.017474;1;-12.05;-77.01
19/06/2022;6;3;6;1;Avenida;AV. GRAU;14;2;Moderado;Activo;1;Cercado lima;-12.055195;-77.013786;1;-12.05;-77.01
21/06/2022;22;3;7;1;Avenida;AV TACNA;1;2;Moderado;Activo;1;Cercado lima;-12.043186;-77.035187;1;-12.04;-77.03
21/06/2022;23;3;7;2;Jiron;JR. PUNO 775 INTERIOR 14 CERCADO DE LIMA.;0;2;Moderado;Activo;1;Cercado lima;-12.054479;-77.027116;1;-12.05;-77.02
20/06/2022;24;3;7;1;Avenida;AV. ABANCAY CON MONTEVIDEO;0;2;Moderado;Activo;1;Cercado lima;-12.057843;-77.030045;1;-12.05;-77.03
22/06/2022;1;3;7;2;Jiron;JR. JUNIN Y JR. HUANUCO;0;2;Moderado;Activo;1;Cercado lima;-12.051075;-77.019316;1;-12.05;-77.01
22/06/2022;2;3;7;1;Avenida;AV. ARGENTINA;29;2;Moderado;Activo;1;Cercado lima;-12.046202;-77.07209;1;-12.04;-77.07
25/06/2022;4;3;1;1;Avenida;AV. ARGENTINA;4;2;Moderado;Activo;1;Cercado lima;-12.044177;-77.047607;1;-12.04;-77.04
24/06/2022;6;3;1;2;Jiron;INTERSECCION DEL JR. HUANUCO CON EL JR. AMAZONAS;0;2;Moderado;Activo;1;Cercado lima;-12.045241;-77.019724;1;-12.04;-77.01
26/06/2022;7;3;1;1;Avenida;AV. GRAU CON PASEO DE LA REPUBLICA;0;2;Moderado;Activo;1;Cercado lima;-12.059589;-77.03517;1;-12.05;-77.03
27/06/2022;4;3;2;2;Jiron;JR ANCASH - HUANUCO;0;2;Moderado;Activo;1;Cercado lima;-12.047728;-77.019756;1;-12.04;-77.01
25/06/2022;9;3;2;2;Jiron;JR. HUANUCO CON GRAU CERCADO DE LIMA;0;2;Moderado;Activo;1;Cercado lima;-12.057245;-77.017557;1;-12.05;-77.01
23/06/2022;9;3;3;1;Avenida;AV. ABANCAY CON JR. MONTEVIDEO CERCADO DE LIMA;0;2;Moderado;Activo;1;Cercado lima;-12.057843;-77.030045;1;-12.05;-77.03
27/06/2022;9;3;4;1;Avenida;AV. GARCILASO DE LA VEGA;13;2;Moderado;Activo;1;Cercado lima;-12.056767;-77.0398989;1;-12.05;-77.03
24/06/2022;10;3;5;1;Avenida;TACNA;4;2;Moderado;Activo;1;Cercado lima;-12.045578;-77.037053;1;-12.04;-77.03
30/06/2022;11;3;6;2;Jiron;JR AZANGARO CON JR PUNO CERCADO DE LIMA;0;2;Moderado;Activo;1;Cercado lima;-12.050733;-77.030389;1;-12.05;-77.03
1/07/2022;12;3;7;1;Avenida;INTERSECCION DE LA AV. URUGUAY CON GARCILASO DE LA VEGA;0;2;Moderado;Activo;1;Cercado lima;-12.054066;-77.038227;1;-12.05;-77.03
1/07/2022;14;3;1;1;Avenida;AV. ABANCAY CON MONTEVIDEO;0;2;Moderado;Activo;1;Cercado lima;-12.057843;-77.030045;1;-12.05;-77.03
30/06/2022;16;3;2;1;Avenida;INTERSECCION DE AV GARCILASO Y JR HUANCAYO-LIMA;0;2;Moderado;Activo;1;Cercado lima;-12.061893;-77.037664;1;-12.06;-77.03
1/07/2022;17;3;3;2;Jiron;JR.  HUANUCO CON CUZCO;0;2;Moderado;Activo;1;Cercado lima;-12.05459;-77.018533;1;-12.05;-77.01
2/07/2022;18;3;4;2;Jiron;JR. PUNO;11;2;Moderado;Activo;1;Cercado lima;-12.055478;-77.021783;1;-12.05;-77.02
3/07/2022;2;3;5;1;Avenida;AV. ARGENTINA CON JR. ASCOPE;3;2;Moderado;Activo;1;Cercado lima;-12.044062;-77.046813;1;-12.04;-77.04
2/07/2022;3;3;6;1;Avenida;AV ARGENTINA;5;2;Moderado;Activo;1;Cercado lima;-12.04423;-77.04853;1;-12.04;-77.04
4/07/2022;4;3;7;1;Avenida;AV. ARGENTINA;5;2;Moderado;Activo;1;Cercado lima;-12.04423;-77.04853;1;-12.04;-77.04
3/07/2022;5;3;1;1;Avenida;AV ARGENTINA;5;2;Moderado;Activo;1;Cercado lima;-12.04423;-77.04853;1;-12.04;-77.04
5/07/2022;1;3;2;1;Avenida;AV. GRAU CERCADO DE LIMA;0;2;Moderado;Activo;1;Cercado lima;-12.059797;-77.034789;1;-12.05;-77.03
24/06/2022;23;3;2;1;Avenida;AV. MIGUEL GRAU;1;2;Moderado;Activo;1;Cercado lima;-12.059797;-77.034789;1;-12.05;-77.03
6/07/2022;24;3;2;1;Avenida;GARCILAZO DE LA VEGA;0;2;Moderado;Activo;1;Cercado lima;-12.060718;-77.037921;1;-12.06;-77.03
6/07/2022;1;3;2;2;Jiron;JR HUANUCO - MIROQUEZADA;0;2;Moderado;Activo;1;Cercado lima;-12.053142;-77.018844;1;-12.05;-77.01
6/07/2022;5;3;2;1;Avenida;AV ALFONSO UGARTE;6;2;Moderado;Activo;1;Cercado lima;-12.05482;-77.041778;1;-12.05;-77.04
7/07/2022;6;3;2;2;Jiron;JIRON PUNO CON JIRON HUANTA;0;2;Moderado;Activo;1;Cercado lima;-12.055108;-77.023544;1;-12.05;-77.02
8/07/2022;2;3;3;1;Avenida;AV. GRAU;0;2;Moderado;Activo;1;Cercado lima;-12.059797;-77.034789;1;-12.05;-77.03
8/07/2022;5;3;3;1;Avenida;AV. GRAU CRUCE CON AV. ANDAHUAYLAS;6;2;Moderado;Activo;1;Cercado lima;-12.05838;-77.026757;1;-12.05;-77.02
8/07/2022;6;3;4;1;Avenida;AV GRAU CON AV. ABANCAY CERCADO DE LIMA;0;2;Moderado;Activo;1;Cercado lima;-12.058661;-77.029852;1;-12.05;-77.02
9/07/2022;7;3;4;2;Jiron;JR PUNO;14;2;Moderado;Activo;1;Cercado lima;-12.05591;-77.018321;1;-12.05;-77.01
10/07/2022;3;3;4;1;Avenida;AV. ALFONSO UGARTE CON LA AV. ARGENTINA;1;2;Moderado;Activo;1;Cercado lima;-12.043772;-77.044251;1;-12.04;-77.04
8/07/2022;11;3;6;2;Jiron;JIRON HUANUCO CON PUNO;0;2;Moderado;Activo;1;Cercado lima;-12.05593;-77.018055;1;-12.05;-77.01
13/07/2022;12;3;7;1;Avenida;AV GARCILASO DE LA VEGA;13;2;Moderado;Activo;1;Cercado lima;-12.056767;-77.0398989;1;-12.05;-77.03
13/07/2022;13;3;6;1;Avenida;AV. ARGENTINA;3;2;Moderado;Activo;1;Cercado lima;-12.044062;-77.046813;1;-12.04;-77.04
14/07/2022;14;3;6;1;Avenida;AV. GRAU CON EL JR. HUANTA;0;2;Moderado;Activo;1;Cercado lima;-12.058191;-77.024743;1;-12.05;-77.02
18/07/2022;12;3;1;1;Avenida;ARGENTINA;24;2;Moderado;Activo;1;Cercado lima;-12.046017;-77.069975;1;-12.04;-77.06
18/07/2022;5;3;2;1;Avenida;INTERSECCION DE LA AV. GRAU Y JR. SANDIA CERCADO DE LIMA.;0;2;Moderado;Activo;1;Cercado lima;-12.059258;-77.033267;1;-12.05;-77.03
18/07/2022;6;3;3;2;Jiron;JR. HUANUCO - BARRIOS ALTOS - CERCADO DE LIMA;4;2;Moderado;Activo;1;Cercado lima;-12.047046;-77.019863;1;-12.04;-77.01
18/07/2022;7;3;2;2;Jiron;JR HUANUCO;4;2;Moderado;Activo;1;Cercado lima;-12.047046;-77.019863;1;-12.04;-77.01
18/07/2022;8;3;2;1;Avenida;INTERSECCIONES DE LA AV. GRAU Y JR.  HUANUCO;0;2;Moderado;Activo;1;Cercado lima;-12.057265;-77.017474;1;-12.05;-77.01
19/07/2022;2;3;2;1;Avenida;AV. GRAU -REF. HOSPITAL GRAU;0;2;Moderado;Activo;1;Cercado lima;-12.057265;-77.017474;1;-12.05;-77.01
22/07/2022;3;3;2;1;Avenida;AV. GRAU CON EL JIRON ANDAHUAYLAS;0;2;Moderado;Activo;1;Cercado lima;-12.05838;-77.026757;1;-12.05;-77.02
24/07/2022;11;3;2;1;Avenida;ALFONSO UGARTE;8;2;Moderado;Activo;1;Cercado lima;-12.05651;-77.04166;1;-12.05;-77.04
24/07/2022;12;3;3;1;Avenida;AV. ARGENTINA;1;2;Moderado;Activo;1;Cercado lima;-12.043772;-77.044251;1;-12.04;-77.04
25/07/2022;15;3;3;1;Avenida;AV. ARGENTINA;1;2;Moderado;Activo;1;Cercado lima;-12.043772;-77.044251;1;-12.04;-77.04
25/07/2022;16;3;4;1;Avenida;AV. ARGENTINA CDRA 22;22;2;Moderado;Activo;1;Cercado lima;-12.046017;-77.069975;1;-12.04;-77.06
24/07/2022;12;3;4;1;Avenida;AV. ARGENTINA;4;2;Moderado;Activo;1;Cercado lima;-12.044177;-77.047607;1;-12.04;-77.04
25/07/2022;3;3;4;1;Avenida;AFUERAS DEL HOSPITAL EMERGENCIA GRAU, INTERSECCIONES DEL JR. CARLOS ZAVALA Y AV. MIGUEL GRAU;0;2;Moderado;Activo;1;Cercado lima;-12.057265;-77.017474;1;-12.05;-77.01
20/07/2022;5;3;4;1;Avenida;AV. GRAU;1;2;Moderado;Activo;1;Cercado lima;-12.059797;-77.034789;1;-12.05;-77.03
10/07/2022;6;3;6;1;Avenida;AV. GRAU;1;2;Moderado;Activo;1;Cercado lima;-12.059797;-77.034789;1;-12.05;-77.03
25/07/2022;22;3;6;2;Jiron;JR. HUANUCO CDRA. 05;0;2;Moderado;Activo;1;Cercado lima;-12.047717;-77.019842;1;-12.04;-77.01
27/07/2022;23;3;6;2;Jiron;JIRON PUNO CON EL JIRON HUANTA;0;2;Moderado;Activo;1;Cercado lima;-12.055108;-77.023544;1;-12.05;-77.02
28/07/2022;24;3;7;1;Avenida;AV. GRAU (REF. HOSPITAL ES SALUD);3;2;Moderado;Activo;1;Cercado lima;-12.058947;-77.030734;1;-12.05;-77.03
28/07/2022;1;3;7;1;Avenida;AV. ARGENTINA;4;2;Moderado;Activo;1;Cercado lima;-12.044177;-77.047607;1;-12.04;-77.04
20/07/2022;2;3;7;1;Avenida;AV. GRAU Y LA MAR;0;2;Moderado;Activo;1;Cercado lima;-12.057524;-77.020466;1;-12.05;-77.02
30/07/2022;4;3;7;1;Avenida;CDRA 13 DE LA AV GRAU CERCADO DE LIMA;0;2;Moderado;Activo;1;Cercado lima;-12.056644;-77.01518;1;-12.05;-77.01
30/07/2022;6;3;7;1;Avenida;AV CARLOS ZAVALA CON AV GRAU CERCADO DE LIMA;0;2;Moderado;Activo;1;Cercado lima;-12.057265;-77.017474;1;-12.05;-77.01
31/07/2022;7;3;1;1;Avenida;AV. GRAU CON AV. ABANCAY;0;2;Moderado;Activo;1;Cercado lima;-12.058661;-77.029852;1;-12.05;-77.02
31/07/2022;4;3;1;1;Avenida;INTERSECCION DE LA AV. GRAU CON SEBASTIAN LORENTE;0;2;Moderado;Activo;1;Cercado lima;-12.054293;-77.013129;1;-12.05;-77.01
31/07/2022;9;3;1;1;Avenida;AV. ARGENTINA CON LA AV. RAMON CARCAMO;7;2;Moderado;Activo;1;Cercado lima;-12.044387;-77.051362;1;-12.04;-77.05
23/07/2022;9;3;2;1;Avenida;AV GARCILASO VEGA;0;2;Moderado;Activo;1;Cercado lima;-12.060718;-77.037921;1;-12.06;-77.03
31/07/2022;9;3;2;2;Jiron;JR. PUNO;3;2;Moderado;Activo;1;Cercado lima;-12.05163;-77.031275;1;-12.05;-77.03
1/08/2022;10;4;3;1;Avenida;ALFONSO UGARTE;8;2;Moderado;Activo;1;Cercado lima;-12.05651;-77.04166;1;-12.05;-77.04
3/08/2022;11;4;4;2;Jiron;JIRON PUNO CON JIRON AYACUCHO;0;2;Moderado;Activo;1;Cercado lima;-12.053387;-77.028522;1;-12.05;-77.02
3/08/2022;12;4;5;1;Avenida;RAMON CARCAMO-CON LA AV. ARGENTINA;3;2;Moderado;Activo;1;Cercado lima;-12.044062;-77.046813;1;-12.04;-77.04
29/07/2022;14;4;6;1;Avenida;TACNA;6;2;Moderado;Activo;1;Cercado lima;-12.048117;-77.038727;1;-12.04;-77.03
4/08/2022;16;4;7;2;Jiron;JIRON PUNO;8;2;Moderado;Activo;1;Cercado lima;-12.054967;-77.024613;1;-12.05;-77.02
4/08/2022;17;4;1;1;Avenida;AV. ARGENTINA;3;2;Moderado;Activo;1;Cercado lima;-12.044062;-77.046813;1;-12.04;-77.04
5/08/2022;18;4;2;1;Avenida;AV. INCA GARCILASO DE LA VEGA Y NICOLAS DE PIEROLA;0;2;Moderado;Activo;1;Cercado lima;-12.05395;-77.0385701;1;-12.05;-77.03
3/08/2022;2;4;3;1;Avenida;ANDAHUAYLAS/AV. GRAU;14;2;Moderado;Activo;1;Cercado lima;-12.055195;-77.013786;1;-12.05;-77.01
5/08/2022;3;4;4;1;Avenida;GRAU;4;2;Moderado;Activo;1;Cercado lima;-12.058778;-77.029276;1;-12.05;-77.02
6/08/2022;4;4;5;1;Avenida;AV. GRAU CON CARLOS ZAVALA;0;2;Moderado;Activo;1;Cercado lima;-12.057265;-77.017474;1;-12.05;-77.01
7/08/2022;5;4;6;1;Avenida;AV. BOLIVIA CON CRUCE AV. GARCILAZO  DE LA VEGA;0;2;Moderado;Activo;1;Cercado lima;-12.055902;-77.038205;1;-12.05;-77.03
7/08/2022;1;4;7;1;Avenida;AV. TACNA/INCA GARCILAZO DE LA VEGA-LIMA;0;2;Moderado;Activo;1;Cercado lima;-12.048379;-77.038887;1;-12.04;-77.03
7/08/2022;23;4;1;1;Avenida;AV. GRAU;2;2;Moderado;Activo;1;Cercado lima;-12.059282;-77.033137;1;-12.05;-77.03
7/08/2022;24;4;2;1;Avenida;TACNA;2;2;Moderado;Activo;1;Cercado lima;-12.04413;-77.035787;1;-12.04;-77.03
7/08/2022;1;4;2;2;Jiron;JR AZANGARO CON JR. PUNO CERCADO DE LIMA;0;2;Moderado;Activo;1;Cercado lima;-12.051765;-77.031101;1;-12.05;-77.03
8/08/2022;5;4;2;1;Avenida;AV. ALFONSO UGARTE;8;2;Moderado;Activo;1;Cercado lima;-12.05651;-77.04166;1;-12.05;-77.04
9/08/2022;6;4;2;2;Jiron;JR HUANUCO CON JR. JUNIN;7;2;Moderado;Activo;1;Cercado lima;-12.052019;-77.019134;1;-12.05;-77.01
9/08/2022;2;4;2;1;Avenida;AV. ABANCAY CON AV. GRAU;0;2;Moderado;Activo;1;Cercado lima;-12.058661;-77.029852;1;-12.05;-77.02
9/08/2022;5;4;2;1;Avenida;ABANCAY Y JR. JUNIN;0;2;Moderado;Activo;1;Cercado lima;-12.047725;-77.0278685;1;-12.04;-77.02
9/08/2022;6;4;3;2;Jiron;PUNO NRO. 880;0;2;Moderado;Activo;1;Cercado lima;-12.054967;-77.024613;1;-12.05;-77.02
8/08/2022;7;4;3;1;Avenida;ARGENTINA CON PACASMAYO;4;2;Moderado;Activo;1;Cercado lima;-12.044177;-77.047607;1;-12.04;-77.04
10/08/2022;3;4;4;1;Avenida;GRAU - REF. HOSPITAL ES SALUD;3;2;Moderado;Activo;1;Cercado lima;-12.058947;-77.030734;1;-12.05;-77.03
6/08/2022;11;4;4;2;Jiron;JR. HUANUCO CON JR. JUNIN CERCADO DE LIMA;0;2;Moderado;Activo;1;Cercado lima;-12.051075;-77.019316;1;-12.05;-77.01
10/08/2022;12;4;4;2;Jiron;PUNO NRO. 554 INT-41 CENTRO COMERCIAL PUNO-CERCADO DE LIMA;5;2;Moderado;Activo;1;Cercado lima;-12.053001;-77.0291;1;-12.05;-77.02
9/08/2022;13;4;6;1;Avenida;AV. GRAU CON JIRON CARLOS ZAVALA;0;2;Moderado;Activo;1;Cercado lima;-12.057265;-77.017474;1;-12.05;-77.01
10/08/2022;14;4;7;1;Avenida;ABANCAY CON JR. CUSCO CERCADO DE LIMA;0;2;Moderado;Activo;1;Cercado lima;-12.047722;-77.0291559;1;-12.04;-77.02
10/08/2022;12;4;6;1;Avenida;AV. GRAU CDRA. 18;18;2;Moderado;Activo;1;Cercado lima;-12.053061;-77.012053;1;-12.05;-77.01
13/08/2022;5;4;6;1;Avenida;ABANCAY CON JR. MONTEVIDEO CERCADO DE LIMA;0;2;Moderado;Activo;1;Cercado lima;-12.057769;-77.030004;1;-12.05;-77.03
14/08/2022;6;4;1;1;Avenida;GRAU CDRA CINCO CERCADO DE LIMA;0;2;Moderado;Activo;1;Cercado lima;-12.058548;-77.027086;1;-12.05;-77.02
15/08/2022;7;4;2;1;Avenida;ABANCAY CON EL JIRON LETICIA;0;2;Moderado;Activo;1;Cercado lima;-12.056626;-77.030154;1;-12.05;-77.03
15/08/2022;8;4;3;1;Avenida;AV ARGENTINA CDRA 06 CERCADO DE LIMA;6;2;Moderado;Activo;1;Cercado lima;-12.04446;-77.050418;1;-12.04;-77.05
16/08/2022;2;4;2;1;Avenida;MIGUEL GRAU CON CRUCE DE CARLOS ZAVALA CERCADO DE LIMA;0;2;Moderado;Activo;1;Cercado lima;-12.05901;-77.031574;1;-12.05;-77.03
17/08/2022;3;4;2;2;Jiron;HUANUCO;2;2;Moderado;Activo;1;Cercado lima;-12.044632;-77.019327;1;-12.04;-77.01
18/08/2022;11;4;2;1;Avenida;ARGENTINA CERCADO DE LIMA;3;2;Moderado;Activo;1;Cercado lima;-12.044062;-77.046813;1;-12.04;-77.04
19/08/2022;12;4;2;1;Avenida;"ARGENTINA NRO. 639 TIENDA C04 ""UDAMPE""";3;2;Moderado;Activo;1;Cercado lima;-12.044062;-77.046813;1;-12.04;-77.04
18/08/2022;15;4;2;1;Avenida;ABANCAY  CUADRA 10;0;2;Moderado;Activo;1;Cercado lima;-12.055732;-77.030234;1;-12.05;-77.03
23/08/2022;16;4;3;2;Jiron;JR HUANUCO CUADRA 07-CERCADO DE LIMA;7;2;Moderado;Activo;1;Cercado lima;-12.052019;-77.019134;1;-12.05;-77.01
23/08/2022;12;4;3;1;Avenida;ABANCAY CDRA 10 CERCADO DE LIMA;0;2;Moderado;Activo;1;Cercado lima;-12.055732;-77.030234;1;-12.05;-77.03
11/08/2022;3;4;4;1;Avenida;ARGENTINA;12;2;Moderado;Activo;1;Cercado lima;-12.044968;-77.058328;1;-12.04;-77.05
23/08/2022;5;4;4;1;Avenida;ABANCAY  CUADRA 10;0;2;Moderado;Activo;1;Cercado lima;-12.055732;-77.030234;1;-12.05;-77.03
26/08/2022;6;4;4;1;Avenida;AV. MIGUEL GRAU NRO. 1688 - CERCADO DE LIMA;16;2;Moderado;Activo;1;Cercado lima;-12.054373;-77.013169;1;-12.05;-77.01
26/08/2022;22;4;4;1;Avenida;CARLOS  ZAVALA  FRENTE AL HOSPITAL EMERGENCIAS GRAU;0;2;Moderado;Activo;1;Cercado lima;-12.057265;-77.017474;1;-12.05;-77.01
26/08/2022;23;4;6;1;Avenida;VIA EXPRESA GRAU CERCADO DE LIMA;0;2;Moderado;Activo;1;Cercado lima;-12.059282;-77.033137;1;-12.05;-77.03
26/08/2022;24;4;6;1;Avenida;ARGENTINA;3;2;Moderado;Activo;1;Cercado lima;-12.044062;-77.046813;1;-12.04;-77.04
26/08/2022;1;4;6;1;Avenida;CARLOS ZAVALA CON AV. GRAU CERCADO DE LIMA;0;2;Moderado;Activo;1;Cercado lima;-12.05901;-77.031574;1;-12.05;-77.03
27/08/2022;2;4;7;1;Avenida;ABANCAY ALTURA DEL PARQUE DE LA MURALLA;0;2;Moderado;Activo;1;Cercado lima;-12.055732;-77.030234;1;-12.05;-77.03
27/08/2022;4;4;7;1;Avenida;GARCILAZO DE LA VEGA  CUADRA 13 INTERIOR P04 CENTRO CIVICO;0;3;Critico;Activo;1;Cercado lima;-12.056767;-77.0398989;1;-12.05;-77.03
27/08/2022;6;4;7;1;Avenida;GARCILASO DE LA VEGA;14;3;Critico;Activo;1;Cercado lima;-12.058036;-77.037919;1;-12.05;-77.03
23/08/2022;7;4;7;1;Avenida;GRAU CON ABANCAY-CERCADO DE LIMA;0;3;Critico;Activo;1;Cercado lima;-12.058661;-77.029852;1;-12.05;-77.02
29/08/2022;4;4;7;1;Avenida;ABANCAY CON GRAU CERCADO DE LIMA;0;3;Critico;Activo;1;Cercado lima;-12.05886;-77.029821;1;-12.05;-77.02
29/08/2022;9;4;1;2;Jiron;HUANUCO CRUCE CON AMAZONAS;1;3;Critico;Activo;1;Cercado lima;-12.045283;-77.019606;1;-12.04;-77.01
30/08/2022;9;4;1;1;Avenida;AV. GARCILAZO DE LA VEGA CDRA 14;14;3;Critico;Activo;1;Cercado lima;-12.058036;-77.037919;1;-12.05;-77.03
31/08/2022;9;4;1;1;Avenida;AV. GRAU CON PASEO DE LA REPUBLICA;0;3;Critico;Activo;1;Cercado lima;-12.059589;-77.03517;1;-12.05;-77.03
31/08/2022;10;4;2;1;Avenida;ARGENTINA;8;3;Critico;Activo;1;Cercado lima;-12.044502;-77.052939;1;-12.04;-77.05
31/08/2022;11;5;2;1;Avenida;ABANCAY - CUZCO;0;3;Critico;Activo;1;Cercado lima;-12.047722;-77.0291559;1;-12.04;-77.02
31/08/2022;12;5;3;1;Avenida;INTERSECCION DE LA AV. GRAU Y HEROES NAVALES CERCADO DE LIMA.;0;3;Critico;Activo;1;Cercado lima;-12.059589;-77.03517;1;-12.05;-77.03
31/08/2022;14;5;4;2;Jiron;JR. ANTONIO MIROQUESADA - JR. HUANUCO - BARRIOS ALTOS;0;3;Critico;Activo;1;Cercado lima;-12.053142;-77.018844;1;-12.05;-77.01
1/09/2022;16;5;5;1;Avenida;GARCILASO DE LA VEGA;12;3;Critico;Activo;1;Cercado lima;-12.055155;-77.038182;1;-12.05;-77.03
1/09/2022;17;5;6;1;Avenida;ABANCAY CON JR LETICIA CERCADO DE LIMA;0;3;Critico;Activo;1;Cercado lima;-12.056626;-77.030154;1;-12.05;-77.03
2/09/2022;18;5;7;2;Jiron;PUNO CON JR. PARURO;0;3;Critico;Activo;1;Cercado lima;-12.054613;-77.02685;1;-12.05;-77.02
31/08/2022;2;5;1;1;Avenida;AV. ARGENTINA - CERCADO DE LIMA (LAS MALVINAS);4;3;Critico;Activo;1;Cercado lima;-12.044177;-77.047607;1;-12.04;-77.04
3/09/2022;3;5;2;1;Avenida;PARADERO GRAU DEL TREN ELECTRICO;0;3;Critico;Activo;1;Cercado lima;-12.054631;-77.013258;1;-12.05;-77.01
3/09/2022;4;5;3;1;Avenida;GRAU CON JR ANDAHUAYLAS CERCADO DE LIMA;0;3;Critico;Activo;1;Cercado lima;-12.05838;-77.026757;1;-12.05;-77.02
4/09/2022;5;5;4;1;Avenida;ABANCAY CRUCE CON EL JR. UCAYALI;4;3;Critico;Activo;1;Cercado lima;-12.050298;-77.028067;1;-12.05;-77.02
3/09/2022;1;5;5;1;Avenida;AV ARGENTINA Y JR ASCOPE CUADRA 03 CERCADO DE LIMA.;3;3;Critico;Activo;1;Cercado lima;-12.044062;-77.046813;1;-12.04;-77.04
4/09/2022;23;5;6;1;Avenida;HOSSPITAL EMERGENCIAS GRAU JR CARLOS ZAVALA CERCADO DE LIMA;0;3;Critico;Activo;1;Cercado lima;-12.05901;-77.031574;1;-12.05;-77.03
4/09/2022;24;5;7;2;Jiron;HUANTA - PUNO;0;3;Critico;Activo;1;Cercado lima;-12.055108;-77.023544;1;-12.05;-77.02
6/09/2022;1;5;1;1;Avenida;AV GARCILAZO DE LA VEGA 783 CERCADO DE LIMA;0;3;Critico;Activo;1;Cercado lima;-12.050141;-77.039804;1;-12.05;-77.03
6/09/2022;5;5;2;1;Avenida;AV ARGENTINA NRO. 17;17;3;Critico;Activo;1;Cercado lima;-12.045612;-77.064802;1;-12.04;-77.06
6/09/2022;6;5;2;1;Avenida;AV ARGENTINA 1749 CERCADO DE LIMA;17;3;Critico;Activo;1;Cercado lima;-12.045612;-77.064802;1;-12.04;-77.06
7/09/2022;2;5;2;1;Avenida;PASEO DE LA REPUBLICA CON AV GRAU CERCADO DE LIMA;0;3;Critico;Activo;1;Cercado lima;-12.059589;-77.03517;1;-12.05;-77.03
7/09/2022;5;5;2;1;Avenida;INTERSECCION DE LA AV. ABANCAY Y JR. MONTEVIDEO CERCADO DE LIMA.;0;3;Critico;Activo;1;Cercado lima;-12.057769;-77.030004;1;-12.05;-77.03
8/09/2022;6;5;2;1;Avenida;ARGENTINA;1;3;Critico;Activo;1;Cercado lima;-12.043772;-77.044251;1;-12.04;-77.04
9/09/2022;7;5;2;1;Avenida;GARCILASO DE LA VEGA;0;3;Critico;Activo;1;Cercado lima;-12.060718;-77.037921;1;-12.06;-77.03
9/09/2022;3;5;3;1;Avenida;INCA GARCILASO DE LA VEGA;12;3;Critico;Activo;1;Cercado lima;-12.055155;-77.038182;1;-12.05;-77.03
6/09/2022;11;5;3;1;Avenida;GARCILASO DE LA VEGA;13;3;Critico;Activo;1;Cercado lima;-12.056767;-77.0398989;1;-12.05;-77.03
10/09/2022;12;5;4;1;Avenida;AV ARGENTINA CDRA 01 CERCADO DE LIMA;1;3;Critico;Activo;1;Cercado lima;-12.043772;-77.044251;1;-12.04;-77.04
8/09/2022;13;5;4;1;Avenida;GARCILASO DE LA VEGA;12;3;Critico;Activo;1;Cercado lima;-12.055155;-77.038182;1;-12.05;-77.03
12/09/2022;14;5;4;1;Avenida;INCA GARCILAZO DE LA VEGA;13;3;Critico;Activo;1;Cercado lima;-12.056767;-77.0398989;1;-12.05;-77.03
13/09/2022;12;5;6;1;Avenida;ARGENTINA;4;3;Critico;Activo;1;Cercado lima;-12.044177;-77.047607;1;-12.04;-77.04
14/09/2022;5;5;7;1;Avenida;TACNA;6;3;Critico;Activo;1;Cercado lima;-12.048117;-77.038727;1;-12.04;-77.03
15/09/2022;6;5;6;1;Avenida;AV. GRAU - LIMA;0;3;Critico;Activo;1;Cercado lima;-12.059282;-77.033137;1;-12.05;-77.03
15/09/2022;7;5;6;1;Avenida;GRAU;2;3;Critico;Activo;1;Cercado lima;-12.059282;-77.033137;1;-12.05;-77.03
15/09/2022;8;5;1;1;Avenida;ARGENTINA NRO. 1749;17;3;Critico;Activo;1;Cercado lima;-12.045612;-77.064802;1;-12.04;-77.06
18/09/2022;2;5;2;2;Jiron;HUANTA CON PUNO;0;3;Critico;Activo;1;Cercado lima;-12.055108;-77.023544;1;-12.05;-77.02
18/09/2022;3;5;3;1;Avenida;JR. MONTEVIDEO NO. 529 CERCADO DE LIMA;0;3;Critico;Activo;1;Cercado lima;-12.057769;-77.030004;1;-12.05;-77.03
15/09/2022;11;5;2;1;Avenida;INTERSECCION DE LA AV. CARLOS ZAVALA Y JR. MONTEVIDEO CERCADO DE LIMA.;0;3;Critico;Activo;1;Cercado lima;-12.057769;-77.030004;1;-12.05;-77.03
20/09/2022;12;5;2;2;Jiron;MIROQUESADA CON HUANUCO;0;3;Critico;Activo;1;Cercado lima;-12.053142;-77.018844;1;-12.05;-77.01
20/09/2022;15;5;2;1;Avenida;AV- GRAU CON AV. ABANCAY;0;3;Critico;Activo;1;Cercado lima;-12.058661;-77.029852;1;-12.05;-77.02
21/09/2022;16;5;2;2;Jiron;PUNO Y ANDAHUAYLAS;0;3;Critico;Activo;1;Cercado lima;-12.054636;-77.026898;1;-12.05;-77.02
21/09/2022;12;5;2;1;Avenida;ABANCAY CON JR. ANCASH CERCADO DE LIMA;0;3;Critico;Activo;1;Cercado lima;-12.046616;-77.026012;1;-12.04;-77.02
21/09/2022;3;5;3;1;Avenida;GRAU;10;3;Critico;Activo;1;Cercado lima;-12.057746;-77.021441;1;-12.05;-77.02
21/09/2022;5;5;3;1;Avenida;AV. ALFONSO UGARTE;9;3;Critico;Activo;1;Cercado lima;-12.059458;-77.041445;1;-12.05;-77.04
22/09/2022;6;5;4;1;Avenida;AV ARGENTINA CDRA 04 CERCADO DE LIMA;4;3;Critico;Activo;1;Cercado lima;-12.044177;-77.047607;1;-12.04;-77.04
23/09/2022;22;5;4;1;Avenida;AV. GARCILASO DE LA VEGA 1040 - LIMA;10;3;Critico;Activo;1;Cercado lima;-12.05399;-77.038268;1;-12.05;-77.03
25/09/2022;23;5;4;1;Avenida;ABANCAY -. HUALLAGA;0;3;Critico;Activo;1;Cercado lima;-12.048756;-77.027214;1;-12.04;-77.02
24/09/2022;24;5;4;1;Avenida;ABANCAY - UCAYALI;0;3;Critico;Activo;1;Cercado lima;-12.049795;-77.02775;1;-12.04;-77.02
25/09/2022;1;5;6;1;Avenida;NICOLAS AYLLON Y AV. GRAU. CERCADO DE LIMA.;0;3;Critico;Activo;1;Cercado lima;-12.059797;-77.034789;1;-12.05;-77.03
24/09/2022;2;5;6;1;Avenida;ABANCAY CON JR. PUNO-CERCADO DE LIMA;0;3;Critico;Activo;1;Cercado lima;-12.052869;-77.029317;1;-12.05;-77.02
22/09/2022;4;5;6;1;Avenida;INTERSECCION DE LA AV. GRAU Y AV. ABANCAY CERCADO DE LIAM.;0;3;Critico;Activo;1;Cercado lima;-12.058661;-77.029852;1;-12.05;-77.02
28/09/2022;6;5;7;1;Avenida;AV ARGENTINA CDRA 1 CERCADO DE LIMA;1;3;Critico;Activo;1;Cercado lima;-12.043772;-77.044251;1;-12.04;-77.04
28/09/2022;7;5;7;1;Avenida;ANDAHUAILAS INT CON AV. GRAU;0;3;Critico;Activo;1;Cercado lima;-12.05838;-77.026757;1;-12.05;-77.02
2/10/2022;4;5;7;1;Avenida;AV ARGENTINA NRO. 777;7;3;Critico;Activo;1;Cercado lima;-12.044387;-77.051362;1;-12.04;-77.05
29/09/2022;9;5;7;2;Jiron;AMAZONAS CON JR. HUANUCO;0;3;Critico;Activo;1;Cercado lima;-12.045241;-77.019724;1;-12.04;-77.01
2/10/2022;9;5;7;2;Jiron;JR. HUANUCO CON JR. MIROQUEZADA;0;3;Critico;Activo;1;Cercado lima;-12.053142;-77.018844;1;-12.05;-77.01
2/10/2022;9;5;1;1;Avenida;BOLIVIA Y AV. INCA GARCILASO DE LA VEGA;0;3;Critico;Activo;1;Cercado lima;-12.055902;-77.038205;1;-12.05;-77.03
29/09/2022;10;5;1;1;Avenida;ARGENTINA;3;3;Critico;Activo;1;Cercado lima;-12.044062;-77.046813;1;-12.04;-77.04
4/10/2022;11;5;1;1;Avenida;VIA EXPRESA GRAU PUENTE ABANCAY CERCADO DE LIMA;0;3;Critico;Activo;1;Cercado lima;-12.058661;-77.029852;1;-12.05;-77.02
4/10/2022;12;5;2;1;Avenida;"CENTRO COMERCIAL  ""NICOLINI""    ARGENTINA - CERCADO DE LIMA.";2;3;Critico;Activo;1;Cercado lima;-12.043923;-77.045898;1;-12.04;-77.04
5/10/2022;14;5;2;2;Jiron;HUANUCO CON AMAZONAS;0;3;Critico;Activo;1;Cercado lima;-12.045241;-77.019724;1;-12.04;-77.01
5/10/2022;16;5;3;1;Avenida;GRAU Y AV. ABANCAY;0;3;Critico;Activo;1;Cercado lima;-12.058661;-77.029852;1;-12.05;-77.02
6/10/2022;17;6;4;1;Avenida;ENTRE ARGENTINA CON JR. CARCAMO CERCADO DE LIMA;6;3;Critico;Activo;1;Cercado lima;-12.04446;-77.050418;1;-12.04;-77.05
7/10/2022;18;6;5;1;Avenida;TACNA;4;3;Critico;Activo;1;Cercado lima;-12.045578;-77.037053;1;-12.04;-77.03
7/10/2022;2;6;6;1;Avenida; ARGENTINA;15;3;Critico;Activo;1;Cercado lima;-12.045098;-77.06036;1;-12.04;-77.06
7/10/2022;3;6;7;1;Avenida;AV. TACNA CDRA 1. IGLESIA SANTA ROSA - CERCADO DE LIMA;1;3;Critico;Activo;1;Cercado lima;-12.043186;-77.035187;1;-12.04;-77.03
8/10/2022;4;6;1;1;Avenida;ABANCAY / JR. PUNO;0;3;Critico;Activo;1;Cercado lima;-12.052869;-77.029317;1;-12.05;-77.02
8/10/2022;5;6;2;1;Avenida;GRAU;2;3;Critico;Activo;1;Cercado lima;-12.059282;-77.033137;1;-12.05;-77.03
8/10/2022;1;6;3;1;Avenida;ABANCAY;3;3;Critico;Activo;1;Cercado lima;-12.048987;-77.027311;1;-12.04;-77.02
7/10/2022;23;6;4;1;Avenida;ARGENTINA;2;3;Critico;Activo;1;Cercado lima;-12.043923;-77.045898;1;-12.04;-77.04
9/10/2022;24;6;5;2;Jiron;JR. HUANUCO 245 CERCADO DE LIMA;0;3;Critico;Activo;1;Cercado lima;-12.044632;-77.019327;1;-12.04;-77.01
5/10/2022;1;6;6;1;Avenida;AV. GRAU CUADRA 13 - CERCADO DE LIMA;13;3;Critico;Activo;1;Cercado lima;-12.056644;-77.01518;1;-12.05;-77.01
10/10/2022;5;6;7;1;Avenida;JR MONTEVIDEO ABANCAY CERCADO DE LIMA;0;3;Critico;Activo;1;Cercado lima;-12.057769;-77.030004;1;-12.05;-77.03
10/10/2022;6;6;1;2;Jiron;JIRONES HUANUCO Y MIROQUESADA-CERCADO DE LIMA;0;3;Critico;Activo;1;Cercado lima;-12.053142;-77.018844;1;-12.05;-77.01
10/10/2022;2;6;2;1;Avenida;GARCILASO DE LA VEGA;13;3;Critico;Activo;1;Cercado lima;-12.056767;-77.0398989;1;-12.05;-77.03
10/10/2022;5;6;2;1;Avenida;AV. GARCILAZO DE LA VEGA CDRA. 16 CERCADO DE LIMA;16;3;Critico;Activo;1;Cercado lima;-12.063571;-77.037744;1;-12.06;-77.03
11/10/2022;6;6;2;1;Avenida;ALFONSO UGARTE;6;3;Critico;Activo;1;Cercado lima;-12.05482;-77.041778;1;-12.05;-77.04
12/10/2022;7;6;2;1;Avenida;ARGENTINA;2;3;Critico;Activo;1;Cercado lima;-12.043923;-77.045898;1;-12.04;-77.04
12/10/2022;3;6;2;1;Avenida;AV. ABANCAY CON GRAU CERCADO DE LIMA.;0;3;Critico;Activo;1;Cercado lima;-12.058661;-77.029852;1;-12.05;-77.02
12/10/2022;11;6;2;1;Avenida;ABANCAY - CUZCO;0;3;Critico;Activo;1;Cercado lima;-12.047722;-77.0291559;1;-12.04;-77.02
10/10/2022;12;6;3;1;Avenida;JR LUCANAS CON GRAU CERCADO DE LIMA;0;3;Critico;Activo;1;Cercado lima;-12.057332;-77.019499;1;-12.05;-77.01
3/10/2022;13;6;3;1;Avenida;CDRA. 1 DE LA AV. ARGENTINA - CERCADO DE LIMA;1;3;Critico;Activo;1;Cercado lima;-12.043772;-77.044251;1;-12.04;-77.04
13/10/2022;14;6;4;1;Avenida;JR. HUANTA CON GRAU CERCADO DE LIMA;0;3;Critico;Activo;1;Cercado lima;-12.058186;-77.024632;1;-12.05;-77.02
28/09/2022;12;6;4;2;Jiron;JR. HUANUCO - JR. AMAZONAS - CERCADO DE LIMA;0;3;Critico;Activo;1;Cercado lima;-12.045241;-77.019724;1;-12.04;-77.01
14/10/2022;5;6;4;1;Avenida;AV. GRAU;1;3;Critico;Activo;1;Cercado lima;-12.059797;-77.034789;1;-12.05;-77.03
15/10/2022;6;6;6;1;Avenida;INTERSECCION DE LA AV. PASEO COLON Y AV. GARCILAZO DE LA VEGA;0;3;Critico;Activo;1;Cercado lima;-12.05971;-77.037964;1;-12.05;-77.03
15/10/2022;7;6;7;1;Avenida;ARGENTINA;2;3;Critico;Activo;1;Cercado lima;-12.043923;-77.045898;1;-12.04;-77.04
16/10/2022;8;6;6;2;Jiron;INTERSECCION DEL JR. PUNO Y JR. LAMPA CERCADO DE LIMA.;0;3;Critico;Activo;1;Cercado lima;-12.051201;-77.03196;1;-12.05;-77.03
16/10/2022;2;6;6;1;Avenida;ABANCAY;0;3;Critico;Activo;1;Cercado lima;-12.050246;-77.027976;1;-12.05;-77.02
16/10/2022;3;6;1;1;Avenida;GRAU - ABANCAY;0;3;Critico;Activo;1;Cercado lima;-12.058661;-77.029852;1;-12.05;-77.02
16/10/2022;11;6;2;1;Avenida;ABANCAY Y JR. AMAZONAS;0;3;Critico;Activo;1;Cercado lima;-12.044864;-77.0251;1;-12.04;-77.02
17/10/2022;12;6;3;2;Jiron;INTERSECCION DEL JR. HUANUCO CON ANCASH;4;3;Critico;Activo;1;Cercado lima;-12.047046;-77.019863;1;-12.04;-77.01
17/10/2022;15;7;2;1;Avenida;GRAU CON JR. CARLOS ZAVALA-CERCADO DE LIMA;0;3;Critico;Activo;1;Cercado lima;-12.05901;-77.031574;1;-12.05;-77.03
18/10/2022;16;7;2;1;Avenida;ALFONSO UGARTE CERCADO DE LIMA;9;3;Critico;Activo;1;Cercado lima;-12.059458;-77.041445;1;-12.05;-77.04
19/10/2022;12;7;2;2;Jiron;JR. JUNIN - JR. HUANUCO - CERCADO DE LIMA;0;3;Critico;Activo;1;Cercado lima;-12.051075;-77.019316;1;-12.05;-77.01
16/10/2022;3;7;2;1;Avenida;ARGENTINA;6;3;Critico;Activo;1;Cercado lima;-12.04446;-77.050418;1;-12.04;-77.05
19/10/2022;5;7;2;1;Avenida;GARCILASO DE LA VEGA;13;3;Critico;Activo;1;Cercado lima;-12.056767;-77.0398989;1;-12.05;-77.03
19/10/2022;6;7;3;2;Jiron;JUNIN - HUANUCO;0;3;Critico;Activo;1;Cercado lima;-12.051075;-77.019316;1;-12.05;-77.01
21/10/2022;22;7;3;2;Jiron;JR. HUANUCO CDRA. 8 BARRIOS ALTOS CERCADO DE LIMA;8;3;Critico;Activo;1;Cercado lima;-12.054379;-77.018657;1;-12.05;-77.01
21/10/2022;23;7;4;1;Avenida;GARCILASO DE LA VEGA - CERCADO DE LIMA;17;3;Critico;Activo;1;Cercado lima;-12.063571;-77.037744;1;-12.06;-77.03
23/10/2022;24;7;4;2;Jiron;JR. HUANUCO NRO. 558 BARRIOS ALTOS CERCADO DE LIMA;5;3;Critico;Activo;1;Cercado lima;-12.047717;-77.019842;1;-12.04;-77.01
21/10/2022;1;7;4;2;Jiron;JR. HUANUCO CDRA 5 CERCADO DE LIMA;5;3;Critico;Activo;1;Cercado lima;-12.047717;-77.019842;1;-12.04;-77.01
23/10/2022;2;7;4;1;Avenida;TACNA;4;3;Critico;Activo;1;Cercado lima;-12.045578;-77.037053;1;-12.04;-77.03
21/10/2022;4;7;6;1;Avenida;ARGENTINA;8;3;Critico;Activo;1;Cercado lima;-12.044502;-77.052939;1;-12.04;-77.05
23/10/2022;6;7;6;2;Jiron;ENTRE JR. HUANUCO Y JR. JUNIN;0;3;Critico;Activo;1;Cercado lima;-12.051075;-77.019316;1;-12.05;-77.01
23/10/2022;7;7;6;2;Jiron;HUANUCO Y JR. ANCASH - LIMA;0;3;Critico;Activo;1;Cercado lima;-12.047728;-77.019756;1;-12.04;-77.01
23/10/2022;4;7;7;2;Jiron;JR. HUANUCO NRO 925 - CERCADO DE LIMA;0;3;Critico;Activo;1;Cercado lima;-12.055419;-77.018211;1;-12.05;-77.01
27/10/2022;9;7;7;1;Avenida;AV. ABANCAY CON JR. MONTEVIDEO-CERCADO DE LIMA;0;3;Critico;Activo;1;Cercado lima;-12.057769;-77.030004;1;-12.05;-77.03
27/10/2022;9;7;7;1;Avenida; HUANUCO CON AV. GRAU;0;3;Critico;Activo;1;Cercado lima;-12.057265;-77.017474;1;-12.05;-77.01
27/10/2022;9;7;7;1;Avenida;AV. GRAU CON JR. HUANUCO CERCADO DE LIMA;0;3;Critico;Activo;1;Cercado lima;-12.057265;-77.017474;1;-12.05;-77.01
26/10/2022;10;7;7;1;Avenida;AV. GRAU CON JR COTABAMBAS ERCADO DE LIMA;0;3;Critico;Activo;1;Cercado lima;-12.059425;-77.034595;1;-12.05;-77.03
28/10/2022;11;7;1;2;Jiron;CDRA 5 DEL JR. HUANUCO;0;3;Critico;Activo;1;Cercado lima;-12.047717;-77.019842;1;-12.04;-77.01
28/10/2022;12;7;1;2;Jiron;CDRA 5 DEL JR. HUANUCO;0;3;Critico;Activo;1;Cercado lima;-12.047717;-77.019842;1;-12.04;-77.01
31/10/2022;14;7;1;1;Avenida;AV GRAU CDRA CINCO;0;3;Critico;Activo;1;Cercado lima;-12.058548;-77.027086;1;-12.05;-77.02
28/10/2022;16;7;2;2;Jiron;JR PUNO CDRA 456 CERCADO DE LIMA;0;3;Critico;Activo;1;Cercado lima;-12.052689;-77.029676;1;-12.05;-77.02
31/10/2022;17;7;2;2;Jiron;JIRON HUANUCO 743 BARRIOS ALTOS (FRONTIS);0;3;Critico;Activo;1;Cercado lima;-12.052019;-77.019134;1;-12.05;-77.01
31/10/2022;18;7;3;1;Avenida;GALERIA 5 CONTINENTES TIENDA 1478 (AV. ABANCAY Y JR. MONTEVIDEO) LIMA.;0;3;Critico;Activo;1;Cercado lima;-12.057769;-77.030004;1;-12.05;-77.03
1/11/2022;2;7;4;2;Jiron;JR PUNO NRO,.140 CERACDO DE LIMA;0;3;Critico;Activo;1;Cercado lima;-12.050758;-77.032734;1;-12.05;-77.03
31/10/2022;3;7;5;1;Avenida;AV. GRAU CDRA. 11 CERCADO DE LIMA;0;3;Critico;Activo;1;Cercado lima;-12.057615;-77.020256;1;-12.05;-77.02
3/11/2022;4;7;6;1;Avenida;VIA EXPRESA GRAU CON AV. ABANCAY CERCADO DE LIMA;0;3;Critico;Activo;1;Cercado lima;-12.058661;-77.029852;1;-12.05;-77.02
4/11/2022;5;7;7;2;Jiron;JR. HUANUCO - CUADRA 08 - LIMA;0;3;Critico;Activo;1;Cercado lima;-12.054379;-77.018657;1;-12.05;-77.01
4/11/2022;1;7;1;1;Avenida;JR HUANTA CON AV GRAU CERCADO DE LIMA;0;3;Critico;Activo;1;Cercado lima;-12.058191;-77.024743;1;-12.05;-77.02
6/11/2022;23;7;2;1;Avenida;JR SANDIA CON AV GRAU CERCADO DE LIMA;0;3;Critico;Activo;1;Cercado lima;-12.059258;-77.033267;1;-12.05;-77.03
6/11/2022;24;7;3;2;Jiron;JR HUANUCO 4 - 5;0;3;Critico;Activo;1;Cercado lima;-12.047046;-77.019863;1;-12.04;-77.01
2/11/2022;1;1;4;1;Avenida;AV. GRAU CERCADO DE LIMA;0;3;Critico;Activo;1;Cercado lima;-12.059282;-77.033137;1;-12.05;-77.03
10/11/2022;5;1;5;2;Jiron;CUADRA 10 DEL JR. HUANUCO - LIMA;0;3;Critico;Activo;1;Cercado lima;-12.055733;-77.018082;1;-12.05;-77.01
9/11/2022;6;1;6;1;Avenida;INMEDIACIONES DE LA CUADRA 2 DE LA AV. GRAU;0;3;Critico;Activo;1;Cercado lima;-12.059282;-77.033137;1;-12.05;-77.03
12/11/2022;2;1;7;2;Jiron;JR. HUANUCO CUADRA 5 - BARRIOS ALTOS - CERCADO DE LIMA;5;3;Critico;Activo;1;Cercado lima;-12.047717;-77.019842;1;-12.04;-77.01
13/11/2022;5;1;1;1;Avenida;AV. ABANCAY CON GRAU CERCADO DE LIMA;0;3;Critico;Activo;1;Cercado lima;-12.058661;-77.029852;1;-12.05;-77.02
15/11/2022;6;1;2;2;Jiron;JR PUNO CON JR PARURO CERCADO DE LIMA;0;3;Critico;Activo;1;Cercado lima;-12.055108;-77.023544;1;-12.05;-77.02
15/11/2022;7;1;2;1;Avenida;INTERSECCION DE LA AV. AVIACION CON L AV.GRAU ;0;3;Critico;Activo;1;Cercado lima;-12.056334;-77.014692;1;-12.05;-77.01
15/11/2022;3;1;2;2;Jiron;JR PUNO CON ANDAHUAYLAS CERCADO DE LIMA;0;3;Critico;Activo;1;Cercado lima;-12.054636;-77.026898;1;-12.05;-77.02
16/11/2022;11;1;2;2;Jiron;INTERSECCION DEL JR. AMAZONAS CON EL JR. HUANUCO;0;3;Critico;Activo;1;Cercado lima;-12.045241;-77.019724;1;-12.04;-77.01
16/11/2022;12;1;2;1;Avenida;PARADERO DE LA VIA EXPRESA DE GRAU CON LA AV. ABANCAY - DE ESTE A OESTE;0;3;Critico;Activo;1;Cercado lima;-12.058661;-77.029852;1;-12.05;-77.02
17/11/2022;13;1;2;2;Jiron;JR HUANUCO CON JR TARATA CERCADO DE LIMA 15001, PER;0;3;Critico;Activo;1;Cercado lima;-12.056355;-77.017913;1;-12.05;-77.01
16/11/2022;14;1;3;1;Avenida;AV. ABANCAY CON JR. MONTEVIDEO;0;3;Critico;Activo;1;Cercado lima;-12.057769;-77.030004;1;-12.05;-77.03
19/11/2022;12;1;3;2;Jiron;JR. PARURO CON JR. PUNO CERCADO DE LIMA;0;3;Critico;Activo;1;Cercado lima;-12.054613;-77.02685;1;-12.05;-77.02
19/11/2022;5;1;4;1;Avenida;AV. AVIACION CON LA AV. GRAU;0;3;Critico;Activo;1;Cercado lima;-12.056334;-77.014692;1;-12.05;-77.01
19/11/2022;6;1;4;1;Avenida;INSTALCIONES DEL HOSPITAL 2 DE MAYO (AV. GRAU -15 LIMA);0;3;Critico;Activo;1;Cercado lima;-12.05695;-77.016176;1;-12.05;-77.01
19/11/2022;7;1;4;1;Avenida;AV. MIGUEL GRAU CDRA. 10, CERCADO DE LIMA 15082, PER;0;3;Critico;Activo;1;Cercado lima;-12.057746;-77.021441;1;-12.05;-77.02
20/11/2022;8;1;6;1;Avenida;AV. GARCILASO DE LA VEGA N1337-CERCADO DE LIMA;0;3;Critico;Activo;1;Cercado lima;-12.056767;-77.0398989;1;-12.05;-77.03
21/11/2022;2;1;7;1;Avenida;AV GRAU CON JR ANDAHUAYLAS CERCADO DE LIMA;0;3;Critico;Activo;1;Cercado lima;-12.05838;-77.026757;1;-12.05;-77.02
21/11/2022;3;1;6;1;Avenida;AV GRAU NRO. 521 CERCADO DE LIMA;0;3;Critico;Activo;1;Cercado lima;-12.058548;-77.027086;1;-12.05;-77.02
21/11/2022;11;1;6;2;Jiron;INTERSECCION DEL JR. CANGALLO CON PUNO;0;3;Critico;Activo;1;Cercado lima;-12.05545;-77.022068;1;-12.05;-77.02
23/11/2022;12;1;1;1;Avenida;AV. GRAU CON LA AV. AVIACION;0;3;Critico;Activo;1;Cercado lima;-12.056334;-77.014692;1;-12.05;-77.01
21/11/2022;15;1;2;2;Jiron;JR. HUANUCO CDRA 05. CERCADO DE LIMA;0;3;Critico;Activo;1;Cercado lima;-12.047717;-77.019842;1;-12.04;-77.01
24/11/2022;16;1;3;1;Avenida;AV. ABANCAY CON GRAU;0;3;Critico;Activo;1;Cercado lima;-12.058661;-77.029852;1;-12.05;-77.02
24/11/2022;12;1;2;1;Avenida;JR SANDIA CON AV GRAU CERCADO DELIMA;0;3;Critico;Activo;1;Cercado lima;-12.059258;-77.033267;1;-12.05;-77.03
27/11/2022;3;1;2;2;Jiron;JR JUNIN - HUANUCO;0;3;Critico;Activo;1;Cercado lima;-12.051075;-77.019316;1;-12.05;-77.01
28/11/2022;5;1;2;1;Avenida;AV. GARCILAZO DE LA VEGA CUADRA 13 CERCADO DE LIMA;0;3;Critico;Activo;1;Cercado lima;-12.056767;-77.0398989;1;-12.05;-77.03
28/11/2022;6;1;2;2;Jiron;JR. AMAZONAS Y JR. HUANUCO - LIMA;0;3;Critico;Activo;1;Cercado lima;-12.045241;-77.019724;1;-12.04;-77.01
28/11/2022;22;1;2;1;Avenida;AV. MIGUEL GRAU 607, CERCADO DE LIMA 15001, PER;0;3;Critico;Activo;1;Cercado lima;-12.058328;-77.025852;1;-12.05;-77.02
28/11/2022;23;1;3;1;Avenida;INMEDIACIONES DE LA ESTACION CENTRAL DEL TREN. AV. GRAU;0;3;Critico;Activo;1;Cercado lima;-12.054631;-77.013258;1;-12.05;-77.01
30/11/2022;24;1;3;2;Jiron;JR. PUNO CON CRUCE DEL JR. ANDAHUAYLAS;0;3;Critico;Activo;1;Cercado lima;-12.054636;-77.026898;1;-12.05;-77.02
30/11/2022;1;1;4;2;Jiron;JR PUNO Y ABANCAY CERCADO DE LIMA;0;3;Critico;Activo;1;Cercado lima;-12.052876;-77.029254;1;-12.05;-77.02
4/12/2022;2;1;4;1;Avenida;AV. VIA EXPRESA GRAU ALTURA DE LA AV. ABANCAY;0;3;Critico;Activo;1;Cercado lima;-12.058661;-77.029852;1;-12.05;-77.02
27/11/2022;4;1;4;1;Avenida;AV INCA GARCILASO DE LA VEGA 711, CERCADO DE LIMA 15001, PER;0;3;Critico;Activo;1;Cercado lima;-12.050141;-77.039804;1;-12.05;-77.03
1/12/2022;6;1;4;1;Avenida;AV. GARCILASO DE LA VEGA  CDRA 13 - CERCADO DE LIMA;0;3;Critico;Activo;1;Cercado lima;-12.056767;-77.0398989;1;-12.05;-77.03
6/12/2022;7;1;6;1;Avenida;PARQUE DE LA MEDICINA CUADRA 16 DE LA AV. GRAU BARRIOS ALTOS CERCADO DE LIMA.;0;3;Critico;Activo;1;Cercado lima;-12.057273;-77.01739;1;-12.05;-77.01
7/12/2022;4;1;6;2;Jiron;JR ANDAHUAYLAS CON PUNO;0;3;Critico;Activo;1;Cercado lima;-12.054636;-77.026898;1;-12.05;-77.02
8/12/2022;9;1;6;1;Avenida;AV AVIACION CON AV GRAU CERCADO DE LIMA 15018, PER;0;3;Critico;Activo;1;Cercado lima;-12.056334;-77.014692;1;-12.05;-77.01
10/12/2022;9;1;7;1;Avenida;INTERSECCION DEL JR. HUANUCO CON LA AV. GRAU;0;3;Critico;Activo;1;Cercado lima;-12.057265;-77.017474;1;-12.05;-77.01
12/12/2022;9;1;7;1;Avenida;AV. GRAU CON  CANGALLO;0;3;Critico;Activo;1;Cercado lima;-12.057793;-77.021875;1;-12.05;-77.02
12/12/2022;10;1;7;7;Otros;LISNER COM NACIONES- LIMA CERCADO;0;3;Critico;Activo;1;Cercado lima;-12.057793;-77.021875;1;-12.05;-77.02
13/12/2022;11;1;7;2;Jiron;JR.PUNO CON EL JR. SOTO MAYOR - LIMA;0;3;Critico;Activo;1;Cercado lima;-12.055279;-77.016288;1;-12.05;-77.01
12/12/2022;12;1;7;2;Jiron;JR. JUNIN Y JR. HUANUCO - LIMA;0;3;Critico;Activo;1;Cercado lima;-12.051075;-77.019316;1;-12.05;-77.01
13/12/2022;14;1;1;1;Avenida;AV. GRAU INT ANDAHUAILAS;0;1;Leve;Activo;1;Cercado lima;-12.05838;-77.026757;1;-12.05;-77.02
13/12/2022;16;1;1;2;Jiron;JR. HUANUCO CDRA 15 FRENTE A LA GALERIA UNICACHI;0;1;Leve;Activo;1;Cercado lima;-12.063372;-77.015293;1;-12.06;-77.01
14/12/2022;17;1;1;2;Jiron;JR PUNO 574 SEGUNDO PISO;0;1;Leve;Activo;1;Cercado lima;-12.053001;-77.0291;1;-12.05;-77.02
17/12/2022;18;1;2;2;Jiron;JR. PUNO CON JR. AZANGARO LIMA;0;1;Leve;Activo;1;Cercado lima;-12.051759;-77.031096;1;-12.05;-77.03
18/12/2022;2;1;2;1;Avenida;PROLONG HUANUCO CON AV. GRAU;0;1;Leve;Activo;1;Cercado lima;-12.057265;-77.017474;1;-12.05;-77.01
21/12/2022;3;1;3;1;Avenida;AV INCA GARCILASO DE LA VEGA 1108, CERCADO DE LIMA 15001, PER;0;1;Leve;Activo;1;Cercado lima;-12.059018;-77.037964;1;-12.05;-77.03
22/12/2022;4;1;4;1;Avenida;INTERSECCIONES DE LA AV. GRAU Y AV. ABANCAY;0;1;Leve;Activo;1;Cercado lima;-12.058661;-77.029852;1;-12.05;-77.02
27/12/2022;5;1;5;2;Jiron;JR PUNO CON JR PARURO CERCADO DE LIMA;0;1;Leve;Activo;1;Cercado lima;-12.055108;-77.023544;1;-12.05;-77.02
29/12/2022;1;1;6;1;Avenida;AV. INCA GARCILASO DE LA VEGA Y BOLIVIA CERCADO DE LIMA;0;1;Leve;Activo;1;Cercado lima;-12.055902;-77.038205;1;-12.05;-77.03
20/12/2022;23;1;7;1;Avenida;AV. AVIACIN CON CRUCE DE LA AV. MIGUEL GRAU;0;1;Leve;Activo;1;Cercado lima;-12.056334;-77.014692;1;-12.05;-77.01
30/12/2022;24;1;1;2;Jiron;HUANUCO - GAMARRA - LA VICTORIA;0;1;Leve;Activo;1;Cercado lima;-12.063372;-77.015293;1;-12.06;-77.01
10/12/2022;1;1;2;1;Avenida;AV. MIGUEL GRAU CON JR. SANDIA-LIMA;0;1;Leve;Activo;1;Cercado lima;-12.059258;-77.033267;1;-12.05;-77.03
1/03/2022;5;1;3;1;Avenida;ARGENTINA;3;1;Leve;Activo;1;Cercado lima;-12.044062;-77.046813;1;-12.04;-77.04
16/01/2022;6;1;4;1;Avenida;TACNA;3;1;Leve;Activo;1;Cercado lima;-12.045137;-77.036538;1;-12.04;-77.03
20/01/2022;2;1;5;1;Avenida;ARGENTINA;15;1;Leve;Activo;1;Cercado lima;-12.045098;-77.06036;1;-12.04;-77.06
17/05/2022;5;1;6;1;Avenida;ABANCAY;10;1;Leve;Activo;1;Cercado lima;-12.055732;-77.030234;1;-12.05;-77.03
3/02/2022;6;1;7;1;Avenida;ARGENTINA;3;1;Leve;Activo;1;Cercado lima;-12.044062;-77.046813;1;-12.04;-77.04
20/01/2022;7;1;1;1;Avenida;ARGENTINA;15;1;Leve;Activo;1;Cercado lima;-12.045098;-77.06036;1;-12.04;-77.06
3/03/2022;3;1;2;1;Avenida;ABANCAY;0;1;Leve;Activo;1;Cercado lima;-12.050246;-77.027976;1;-12.05;-77.02
4/03/2022;11;1;2;1;Avenida;ABANCAY;0;1;Leve;Activo;1;Cercado lima;-12.050246;-77.027976;1;-12.05;-77.02
13/03/2022;12;1;2;2;Jiron;PUNO;4;1;Leve;Activo;1;Cercado lima;-12.052907;-77.029276;1;-12.05;-77.02
21/06/2022;13;1;2;2;Jiron;PUNO;7;1;Leve;Activo;1;Cercado lima;-12.054479;-77.027116;1;-12.05;-77.02
11/03/2022;14;1;2;1;Avenida;ABANCAY;0;1;Leve;Activo;1;Cercado lima;-12.050246;-77.027976;1;-12.05;-77.02
27/01/2022;12;2;2;2;Jiron;PUNO Y LAMPA;0;1;Leve;Activo;1;Cercado lima;-12.051201;-77.03196;1;-12.05;-77.03
20/04/2022;5;2;3;1;Avenida;ABANCAY Y NICOLAS DE PIEROLA;0;1;Leve;Activo;1;Cercado lima;-12.054086;-77.029977;1;-12.05;-77.02
2/06/2022;6;2;3;1;Avenida;GRAU Y HUANUCO;0;1;Leve;Activo;1;Cercado lima;-12.057265;-77.017474;1;-12.05;-77.01
9/03/2022;7;2;4;1;Avenida;ARGENTINA Y VILLEGA;0;1;Leve;Activo;1;Cercado lima;-12.043363;-77.043661;1;-12.04;-77.04
18/02/2022;8;2;4;2;Jiron;PUNO Y HUANUCO;0;1;Leve;Activo;1;Cercado lima;-12.05593;-77.018055;1;-12.05;-77.01
18/01/2022;2;2;4;2;Jiron;MARIANO ARREDONDO;28;1;Leve;Activo;1;Cercado lima;-12.055909;-77.018055;1;-12.05;-77.01
29/01/2022;3;2;6;1;Avenida;GARCILAZO DE LA VEGA;13;1;Leve;Activo;1;Cercado lima;-12.056767;-77.0398989;1;-12.05;-77.03
25/04/2022;11;2;7;1;Avenida;GRAU;0;1;Leve;Activo;1;Cercado lima;-12.057265;-77.017474;1;-12.05;-77.01
3/03/2022;12;2;6;1;Avenida;GARCILAZO DE LA VEGA;13;1;Leve;Activo;1;Cercado lima;-12.056767;-77.0398989;1;-12.05;-77.03
20/04/2022;15;2;6;1;Avenida;ABANCAY Y NICOLAS DE PIEROLA;7;1;Leve;Activo;1;Cercado lima;-12.054086;-77.029977;1;-12.05;-77.02
18/02/2022;16;2;1;2;Jiron;PUNO Y JIRON HUANUCO;0;1;Leve;Activo;1;Cercado lima;-12.05593;-77.018055;1;-12.05;-77.01
2/03/2022;12;2;2;1;Avenida;ABANCAY Y AVENIDA GRAU;0;1;Leve;Activo;1;Cercado lima;-12.05886;-77.029821;1;-12.05;-77.02
20/04/2022;3;2;3;1;Avenida;ABANCAY Y AVENIDA NICOLAS PIEROLA;0;1;Leve;Activo;1;Cercado lima;-12.054086;-77.029977;1;-12.05;-77.02
